[{"url": "https://s3.amazonaws.com/FrackFinder/Tadpole/Washington/2005/2005_X-080.5163_Y0040.2264.png", "longitude": "-80.5163", "county": "", "siteID": "aa99637f-1aad-50b6-b4d0-d2a2fe7c78ad", "year": "2005", "latitude": "40.2264"},{"url": "https://s3.amazonaws.com/FrackFinder/Tadpole/Washington/2008/2008_X-080.5163_Y0040.2264.png", "longitude": "-80.5163", "county": "", "siteID": "aa99637f-1aad-50b6-b4d0-d2a2fe7c78ad", "year": "2008", "latitude": "40.2264"},{"url": "https://s3.amazonaws.com/FrackFinder/Tadpole/Washington/2010/2010_X-080.5163_Y0040.2264.png", "longitude": "-80.5163", "county": "", "siteID": "aa99637f-1aad-50b6-b4d0-d2a2fe7c78ad", "year": "2010", "latitude": "40.2264"},{"url": "https://s3.amazonaws.com/FrackFinder/Tadpole/Washington/2005/2005_X-080.5076_Y0040.1147.png", "longitude": "-80.5076", "county": "", "siteID": "e3543b8c-e2b7-51a5-945f-b84657ee7e3c", "year": "2005", "latitude": "40.1147"},{"url": "https://s3.amazonaws.com/FrackFinder/Tadpole/Washington/2008/2008_X-080.5076_Y0040.1147.png", "longitude": "-80.5076", "county": "", "siteID": "e3543b8c-e2b7-51a5-945f-b84657ee7e3c", "year": "2008", "latitude": "40.1147"},{"url": "https://s3.amazonaws.com/FrackFinder/Tadpole/Washington/2010/2010_X-080.5076_Y0040.1147.png", "longitude": "-80.5076", "county": "", "siteID": "e3543b8c-e2b7-51a5-945f-b84657ee7e3c", "year": "2010", "latitude": "40.1147"},{"url": "https://s3.amazonaws.com/FrackFinder/Tadpole/Washington/2005/2005_X-080.5071_Y0039.9744.png", "longitude": "-80.5071", "county": "", "siteID": "de1c7ab7-33bc-54d7-9231-35ce28c3e281", "year": "2005", "latitude": "39.9744"},{"url": "https://s3.amazonaws.com/FrackFinder/Tadpole/Washington/2008/2008_X-080.5071_Y0039.9744.png", "longitude": "-80.5071", "county": "", "siteID": "de1c7ab7-33bc-54d7-9231-35ce28c3e281", "year": "2008", "latitude": "39.9744"},{"url": "https://s3.amazonaws.com/FrackFinder/Tadpole/Washington/2010/2010_X-080.5071_Y0039.9744.png", "longitude": "-80.5071", "county": "", "siteID": "de1c7ab7-33bc-54d7-9231-35ce28c3e281", "year": "2010", "latitude": "39.9744"},{"url": "https://s3.amazonaws.com/FrackFinder/Tadpole/Washington/2005/2005_X-080.5054_Y0039.9600.png", "longitude": "-80.5054", "county": "", "siteID": "52763be6-c5ef-5bdf-852d-c8faaf76d7db", "year": "2005", "latitude": "39.96"},{"url": "https://s3.amazonaws.com/FrackFinder/Tadpole/Washington/2008/2008_X-080.5054_Y0039.9600.png", "longitude": "-80.5054", "county": "", "siteID": "52763be6-c5ef-5bdf-852d-c8faaf76d7db", "year": "2008", "latitude": "39.96"},{"url": "https://s3.amazonaws.com/FrackFinder/Tadpole/Washington/2010/2010_X-080.5054_Y0039.9600.png", "longitude": "-80.5054", "county": "", "siteID": "52763be6-c5ef-5bdf-852d-c8faaf76d7db", "year": "2010", "latitude": "39.96"},{"url": "https://s3.amazonaws.com/FrackFinder/Tadpole/Greene/2005/2005_X-080.5031_Y0039.7391.png", "longitude": "-80.5031", "county": "", "siteID": "c2c5c0da-f2a9-5963-a9c4-0f56acca611f", "year": "2005", "latitude": "39.7391"},{"url": "https://s3.amazonaws.com/FrackFinder/Tadpole/Greene/2008/2008_X-080.5031_Y0039.7391.png", "longitude": "-80.5031", "county": "", "siteID": "c2c5c0da-f2a9-5963-a9c4-0f56acca611f", "year": "2008", "latitude": "39.7391"},{"url": "https://s3.amazonaws.com/FrackFinder/Tadpole/Greene/2010/2010_X-080.5031_Y0039.7391.png", "longitude": "-80.5031", "county": "", "siteID": "c2c5c0da-f2a9-5963-a9c4-0f56acca611f", "year": "2010", "latitude": "39.7391"},{"url": "https://s3.amazonaws.com/FrackFinder/Tadpole/Washington/2005/2005_X-080.5029_Y0040.2604.png", "longitude": "-80.5029", "county": "", "siteID": "997c6223-f870-5777-922c-fd07ee9792bb", "year": "2005", "latitude": "40.2604"},{"url": "https://s3.amazonaws.com/FrackFinder/Tadpole/Washington/2008/2008_X-080.5029_Y0040.2604.png", "longitude": "-80.5029", "county": "", "siteID": "997c6223-f870-5777-922c-fd07ee9792bb", "year": "2008", "latitude": "40.2604"},{"url": "https://s3.amazonaws.com/FrackFinder/Tadpole/Washington/2010/2010_X-080.5029_Y0040.2604.png", "longitude": "-80.5029", "county": "", "siteID": "997c6223-f870-5777-922c-fd07ee9792bb", "year": "2010", "latitude": "40.2604"},{"url": "https://s3.amazonaws.com/FrackFinder/Tadpole/Greene/2005/2005_X-080.5018_Y0039.8022.png", "longitude": "-80.5018", "county": "", "siteID": "fa95b1b5-2967-5cea-b090-3965ea1b6dca", "year": "2005", "latitude": "39.8022"},{"url": "https://s3.amazonaws.com/FrackFinder/Tadpole/Greene/2008/2008_X-080.5018_Y0039.8022.png", "longitude": "-80.5018", "county": "", "siteID": "fa95b1b5-2967-5cea-b090-3965ea1b6dca", "year": "2008", "latitude": "39.8022"},{"url": "https://s3.amazonaws.com/FrackFinder/Tadpole/Greene/2010/2010_X-080.5018_Y0039.8022.png", "longitude": "-80.5018", "county": "", "siteID": "fa95b1b5-2967-5cea-b090-3965ea1b6dca", "year": "2010", "latitude": "39.8022"},{"url": "https://s3.amazonaws.com/FrackFinder/Tadpole/Washington/2005/2005_X-080.5018_Y0040.2227.png", "longitude": "-80.5018", "county": "", "siteID": "75e8c2ae-7780-5efd-9521-022b799ed25b", "year": "2005", "latitude": "40.2227"},{"url": "https://s3.amazonaws.com/FrackFinder/Tadpole/Washington/2008/2008_X-080.5018_Y0040.2227.png", "longitude": "-80.5018", "county": "", "siteID": "75e8c2ae-7780-5efd-9521-022b799ed25b", "year": "2008", "latitude": "40.2227"},{"url": "https://s3.amazonaws.com/FrackFinder/Tadpole/Washington/2010/2010_X-080.5018_Y0040.2227.png", "longitude": "-80.5018", "county": "", "siteID": "75e8c2ae-7780-5efd-9521-022b799ed25b", "year": "2010", "latitude": "40.2227"},{"url": "https://s3.amazonaws.com/FrackFinder/Tadpole/Washington/2005/2005_X-080.5003_Y0040.2701.png", "longitude": "-80.5003", "county": "", "siteID": "2c217770-05fa-5de9-9f8a-604d025e015b", "year": "2005", "latitude": "40.2701"},{"url": "https://s3.amazonaws.com/FrackFinder/Tadpole/Washington/2008/2008_X-080.5003_Y0040.2701.png", "longitude": "-80.5003", "county": "", "siteID": "2c217770-05fa-5de9-9f8a-604d025e015b", "year": "2008", "latitude": "40.2701"},{"url": "https://s3.amazonaws.com/FrackFinder/Tadpole/Washington/2010/2010_X-080.5003_Y0040.2701.png", "longitude": "-80.5003", "county": "", "siteID": "2c217770-05fa-5de9-9f8a-604d025e015b", "year": "2010", "latitude": "40.2701"},{"url": "https://s3.amazonaws.com/FrackFinder/Tadpole/Washington/2005/2005_X-080.4993_Y0040.1838.png", "longitude": "-80.4993", "county": "", "siteID": "e6ce2ab5-5aa4-58fe-aaac-f2305a2d8942", "year": "2005", "latitude": "40.1838"},{"url": "https://s3.amazonaws.com/FrackFinder/Tadpole/Washington/2008/2008_X-080.4993_Y0040.1838.png", "longitude": "-80.4993", "county": "", "siteID": "e6ce2ab5-5aa4-58fe-aaac-f2305a2d8942", "year": "2008", "latitude": "40.1838"},{"url": "https://s3.amazonaws.com/FrackFinder/Tadpole/Washington/2010/2010_X-080.4993_Y0040.1838.png", "longitude": "-80.4993", "county": "", "siteID": "e6ce2ab5-5aa4-58fe-aaac-f2305a2d8942", "year": "2010", "latitude": "40.1838"},{"url": "https://s3.amazonaws.com/FrackFinder/Tadpole/Washington/2005/2005_X-080.4990_Y0040.4302.png", "longitude": "-80.499", "county": "", "siteID": "4a70ace6-8279-537c-9d27-1fd0d50e72d1", "year": "2005", "latitude": "40.4302"},{"url": "https://s3.amazonaws.com/FrackFinder/Tadpole/Washington/2008/2008_X-080.4990_Y0040.4302.png", "longitude": "-80.499", "county": "", "siteID": "4a70ace6-8279-537c-9d27-1fd0d50e72d1", "year": "2008", "latitude": "40.4302"},{"url": "https://s3.amazonaws.com/FrackFinder/Tadpole/Washington/2010/2010_X-080.4990_Y0040.4302.png", "longitude": "-80.499", "county": "", "siteID": "4a70ace6-8279-537c-9d27-1fd0d50e72d1", "year": "2010", "latitude": "40.4302"},{"url": "https://s3.amazonaws.com/FrackFinder/Tadpole/Greene/2005/2005_X-080.4968_Y0039.8254.png", "longitude": "-80.4968", "county": "", "siteID": "eac0bb9d-9edf-5702-a82c-0eccf021e2a8", "year": "2005", "latitude": "39.8254"},{"url": "https://s3.amazonaws.com/FrackFinder/Tadpole/Greene/2008/2008_X-080.4968_Y0039.8254.png", "longitude": "-80.4968", "county": "", "siteID": "eac0bb9d-9edf-5702-a82c-0eccf021e2a8", "year": "2008", "latitude": "39.8254"},{"url": "https://s3.amazonaws.com/FrackFinder/Tadpole/Greene/2010/2010_X-080.4968_Y0039.8254.png", "longitude": "-80.4968", "county": "", "siteID": "eac0bb9d-9edf-5702-a82c-0eccf021e2a8", "year": "2010", "latitude": "39.8254"},{"url": "https://s3.amazonaws.com/FrackFinder/Tadpole/Washington/2005/2005_X-080.4966_Y0040.1559.png", "longitude": "-80.4966", "county": "", "siteID": "692226e9-7d3a-5ded-9d70-e8f0fe3e64a2", "year": "2005", "latitude": "40.1559"},{"url": "https://s3.amazonaws.com/FrackFinder/Tadpole/Washington/2008/2008_X-080.4966_Y0040.1559.png", "longitude": "-80.4966", "county": "", "siteID": "692226e9-7d3a-5ded-9d70-e8f0fe3e64a2", "year": "2008", "latitude": "40.1559"},{"url": "https://s3.amazonaws.com/FrackFinder/Tadpole/Washington/2010/2010_X-080.4966_Y0040.1559.png", "longitude": "-80.4966", "county": "", "siteID": "692226e9-7d3a-5ded-9d70-e8f0fe3e64a2", "year": "2010", "latitude": "40.1559"},{"url": "https://s3.amazonaws.com/FrackFinder/Tadpole/Greene/2005/2005_X-080.4952_Y0039.8486.png", "longitude": "-80.4952", "county": "", "siteID": "7371ad68-273f-5850-98e2-8b5f3e581abf", "year": "2005", "latitude": "39.8486"},{"url": "https://s3.amazonaws.com/FrackFinder/Tadpole/Greene/2008/2008_X-080.4952_Y0039.8486.png", "longitude": "-80.4952", "county": "", "siteID": "7371ad68-273f-5850-98e2-8b5f3e581abf", "year": "2008", "latitude": "39.8486"},{"url": "https://s3.amazonaws.com/FrackFinder/Tadpole/Greene/2010/2010_X-080.4952_Y0039.8486.png", "longitude": "-80.4952", "county": "", "siteID": "7371ad68-273f-5850-98e2-8b5f3e581abf", "year": "2010", "latitude": "39.8486"},{"url": "https://s3.amazonaws.com/FrackFinder/Tadpole/Greene/2005/2005_X-080.4949_Y0039.7403.png", "longitude": "-80.4949", "county": "", "siteID": "42571354-56df-5a6e-b17c-9003d2a67de2", "year": "2005", "latitude": "39.7403"},{"url": "https://s3.amazonaws.com/FrackFinder/Tadpole/Greene/2008/2008_X-080.4949_Y0039.7403.png", "longitude": "-80.4949", "county": "", "siteID": "42571354-56df-5a6e-b17c-9003d2a67de2", "year": "2008", "latitude": "39.7403"},{"url": "https://s3.amazonaws.com/FrackFinder/Tadpole/Greene/2010/2010_X-080.4949_Y0039.7403.png", "longitude": "-80.4949", "county": "", "siteID": "42571354-56df-5a6e-b17c-9003d2a67de2", "year": "2010", "latitude": "39.7403"},{"url": "https://s3.amazonaws.com/FrackFinder/Tadpole/Washington/2005/2005_X-080.4945_Y0040.2149.png", "longitude": "-80.4945", "county": "", "siteID": "ddcca452-4e64-51b2-9134-f42f7c50e175", "year": "2005", "latitude": "40.2149"},{"url": "https://s3.amazonaws.com/FrackFinder/Tadpole/Washington/2008/2008_X-080.4945_Y0040.2149.png", "longitude": "-80.4945", "county": "", "siteID": "ddcca452-4e64-51b2-9134-f42f7c50e175", "year": "2008", "latitude": "40.2149"},{"url": "https://s3.amazonaws.com/FrackFinder/Tadpole/Washington/2010/2010_X-080.4945_Y0040.2149.png", "longitude": "-80.4945", "county": "", "siteID": "ddcca452-4e64-51b2-9134-f42f7c50e175", "year": "2010", "latitude": "40.2149"},{"url": "https://s3.amazonaws.com/FrackFinder/Tadpole/Washington/2005/2005_X-080.4931_Y0040.1191.png", "longitude": "-80.4931", "county": "", "siteID": "146e997f-e9fd-5f05-97ef-5da55aa1db76", "year": "2005", "latitude": "40.1191"},{"url": "https://s3.amazonaws.com/FrackFinder/Tadpole/Washington/2008/2008_X-080.4931_Y0040.1191.png", "longitude": "-80.4931", "county": "", "siteID": "146e997f-e9fd-5f05-97ef-5da55aa1db76", "year": "2008", "latitude": "40.1191"},{"url": "https://s3.amazonaws.com/FrackFinder/Tadpole/Washington/2010/2010_X-080.4931_Y0040.1191.png", "longitude": "-80.4931", "county": "", "siteID": "146e997f-e9fd-5f05-97ef-5da55aa1db76", "year": "2010", "latitude": "40.1191"},{"url": "https://s3.amazonaws.com/FrackFinder/Tadpole/Washington/2005/2005_X-080.4898_Y0040.4007.png", "longitude": "-80.4898", "county": "", "siteID": "1e24797b-eae4-5da5-809f-c98ed81c7fa7", "year": "2005", "latitude": "40.4007"},{"url": "https://s3.amazonaws.com/FrackFinder/Tadpole/Washington/2008/2008_X-080.4898_Y0040.4007.png", "longitude": "-80.4898", "county": "", "siteID": "1e24797b-eae4-5da5-809f-c98ed81c7fa7", "year": "2008", "latitude": "40.4007"},{"url": "https://s3.amazonaws.com/FrackFinder/Tadpole/Washington/2010/2010_X-080.4898_Y0040.4007.png", "longitude": "-80.4898", "county": "", "siteID": "1e24797b-eae4-5da5-809f-c98ed81c7fa7", "year": "2010", "latitude": "40.4007"},{"url": "https://s3.amazonaws.com/FrackFinder/Tadpole/Washington/2005/2005_X-080.4886_Y0039.9911.png", "longitude": "-80.4886", "county": "", "siteID": "c37d3482-ff0a-5526-b585-e924741d7208", "year": "2005", "latitude": "39.9911"},{"url": "https://s3.amazonaws.com/FrackFinder/Tadpole/Washington/2008/2008_X-080.4886_Y0039.9911.png", "longitude": "-80.4886", "county": "", "siteID": "c37d3482-ff0a-5526-b585-e924741d7208", "year": "2008", "latitude": "39.9911"},{"url": "https://s3.amazonaws.com/FrackFinder/Tadpole/Washington/2010/2010_X-080.4886_Y0039.9911.png", "longitude": "-80.4886", "county": "", "siteID": "c37d3482-ff0a-5526-b585-e924741d7208", "year": "2010", "latitude": "39.9911"},{"url": "https://s3.amazonaws.com/FrackFinder/Tadpole/Washington/2005/2005_X-080.4856_Y0040.2784.png", "longitude": "-80.4856", "county": "", "siteID": "4ed2989f-7a6a-5c4c-974b-37709b5e397a", "year": "2005", "latitude": "40.2784"},{"url": "https://s3.amazonaws.com/FrackFinder/Tadpole/Washington/2008/2008_X-080.4856_Y0040.2784.png", "longitude": "-80.4856", "county": "", "siteID": "4ed2989f-7a6a-5c4c-974b-37709b5e397a", "year": "2008", "latitude": "40.2784"},{"url": "https://s3.amazonaws.com/FrackFinder/Tadpole/Washington/2010/2010_X-080.4856_Y0040.2784.png", "longitude": "-80.4856", "county": "", "siteID": "4ed2989f-7a6a-5c4c-974b-37709b5e397a", "year": "2010", "latitude": "40.2784"},{"url": "https://s3.amazonaws.com/FrackFinder/Tadpole/Washington/2005/2005_X-080.4837_Y0040.2317.png", "longitude": "-80.4837", "county": "", "siteID": "3be23c55-a5fc-5e96-8ea2-1bbcecc0b003", "year": "2005", "latitude": "40.2317"},{"url": "https://s3.amazonaws.com/FrackFinder/Tadpole/Washington/2008/2008_X-080.4837_Y0040.2317.png", "longitude": "-80.4837", "county": "", "siteID": "3be23c55-a5fc-5e96-8ea2-1bbcecc0b003", "year": "2008", "latitude": "40.2317"},{"url": "https://s3.amazonaws.com/FrackFinder/Tadpole/Washington/2010/2010_X-080.4837_Y0040.2317.png", "longitude": "-80.4837", "county": "", "siteID": "3be23c55-a5fc-5e96-8ea2-1bbcecc0b003", "year": "2010", "latitude": "40.2317"},{"url": "https://s3.amazonaws.com/FrackFinder/Tadpole/Washington/2005/2005_X-080.4833_Y0040.2450.png", "longitude": "-80.4833", "county": "", "siteID": "d4a47f34-8d95-5dc1-af32-b878edf3da6e", "year": "2005", "latitude": "40.245"},{"url": "https://s3.amazonaws.com/FrackFinder/Tadpole/Washington/2008/2008_X-080.4833_Y0040.2450.png", "longitude": "-80.4833", "county": "", "siteID": "d4a47f34-8d95-5dc1-af32-b878edf3da6e", "year": "2008", "latitude": "40.245"},{"url": "https://s3.amazonaws.com/FrackFinder/Tadpole/Washington/2010/2010_X-080.4833_Y0040.2450.png", "longitude": "-80.4833", "county": "", "siteID": "d4a47f34-8d95-5dc1-af32-b878edf3da6e", "year": "2010", "latitude": "40.245"},{"url": "https://s3.amazonaws.com/FrackFinder/Tadpole/Greene/2005/2005_X-080.4814_Y0039.7893.png", "longitude": "-80.4814", "county": "", "siteID": "05c86e94-178c-5edc-a07b-38e7514aec6e", "year": "2005", "latitude": "39.7893"},{"url": "https://s3.amazonaws.com/FrackFinder/Tadpole/Greene/2008/2008_X-080.4814_Y0039.7893.png", "longitude": "-80.4814", "county": "", "siteID": "05c86e94-178c-5edc-a07b-38e7514aec6e", "year": "2008", "latitude": "39.7893"},{"url": "https://s3.amazonaws.com/FrackFinder/Tadpole/Greene/2010/2010_X-080.4814_Y0039.7893.png", "longitude": "-80.4814", "county": "", "siteID": "05c86e94-178c-5edc-a07b-38e7514aec6e", "year": "2010", "latitude": "39.7893"},{"url": "https://s3.amazonaws.com/FrackFinder/Tadpole/Washington/2005/2005_X-080.4787_Y0040.0171.png", "longitude": "-80.4787", "county": "", "siteID": "2595b326-f1e2-5b06-b0bf-a99fd8dd45d3", "year": "2005", "latitude": "40.0171"},{"url": "https://s3.amazonaws.com/FrackFinder/Tadpole/Washington/2008/2008_X-080.4787_Y0040.0171.png", "longitude": "-80.4787", "county": "", "siteID": "2595b326-f1e2-5b06-b0bf-a99fd8dd45d3", "year": "2008", "latitude": "40.0171"},{"url": "https://s3.amazonaws.com/FrackFinder/Tadpole/Washington/2010/2010_X-080.4787_Y0040.0171.png", "longitude": "-80.4787", "county": "", "siteID": "2595b326-f1e2-5b06-b0bf-a99fd8dd45d3", "year": "2010", "latitude": "40.0171"},{"url": "https://s3.amazonaws.com/FrackFinder/Tadpole/Washington/2005/2005_X-080.4784_Y0040.1992.png", "longitude": "-80.4784", "county": "", "siteID": "f97c77fe-1c09-52e1-b6ac-6120a5df5d0c", "year": "2005", "latitude": "40.1992"},{"url": "https://s3.amazonaws.com/FrackFinder/Tadpole/Washington/2008/2008_X-080.4784_Y0040.1992.png", "longitude": "-80.4784", "county": "", "siteID": "f97c77fe-1c09-52e1-b6ac-6120a5df5d0c", "year": "2008", "latitude": "40.1992"},{"url": "https://s3.amazonaws.com/FrackFinder/Tadpole/Washington/2010/2010_X-080.4784_Y0040.1992.png", "longitude": "-80.4784", "county": "", "siteID": "f97c77fe-1c09-52e1-b6ac-6120a5df5d0c", "year": "2010", "latitude": "40.1992"},{"url": "https://s3.amazonaws.com/FrackFinder/Tadpole/Greene/2005/2005_X-080.4773_Y0039.8137.png", "longitude": "-80.4773", "county": "", "siteID": "7db83646-f9e6-58d6-ba9b-30ac428ac3fd", "year": "2005", "latitude": "39.8137"},{"url": "https://s3.amazonaws.com/FrackFinder/Tadpole/Greene/2008/2008_X-080.4773_Y0039.8137.png", "longitude": "-80.4773", "county": "", "siteID": "7db83646-f9e6-58d6-ba9b-30ac428ac3fd", "year": "2008", "latitude": "39.8137"},{"url": "https://s3.amazonaws.com/FrackFinder/Tadpole/Greene/2010/2010_X-080.4773_Y0039.8137.png", "longitude": "-80.4773", "county": "", "siteID": "7db83646-f9e6-58d6-ba9b-30ac428ac3fd", "year": "2010", "latitude": "39.8137"},{"url": "https://s3.amazonaws.com/FrackFinder/Tadpole/Washington/2005/2005_X-080.4752_Y0040.4090.png", "longitude": "-80.4752", "county": "", "siteID": "9207e046-edda-5286-84fa-107371c80c84", "year": "2005", "latitude": "40.409"},{"url": "https://s3.amazonaws.com/FrackFinder/Tadpole/Washington/2008/2008_X-080.4752_Y0040.4090.png", "longitude": "-80.4752", "county": "", "siteID": "9207e046-edda-5286-84fa-107371c80c84", "year": "2008", "latitude": "40.409"},{"url": "https://s3.amazonaws.com/FrackFinder/Tadpole/Washington/2010/2010_X-080.4752_Y0040.4090.png", "longitude": "-80.4752", "county": "", "siteID": "9207e046-edda-5286-84fa-107371c80c84", "year": "2010", "latitude": "40.409"},{"url": "https://s3.amazonaws.com/FrackFinder/Tadpole/Washington/2005/2005_X-080.4746_Y0040.2598.png", "longitude": "-80.4746", "county": "", "siteID": "15e10d89-0d80-5c4c-8926-01d34c0c62b0", "year": "2005", "latitude": "40.2598"},{"url": "https://s3.amazonaws.com/FrackFinder/Tadpole/Washington/2008/2008_X-080.4746_Y0040.2598.png", "longitude": "-80.4746", "county": "", "siteID": "15e10d89-0d80-5c4c-8926-01d34c0c62b0", "year": "2008", "latitude": "40.2598"},{"url": "https://s3.amazonaws.com/FrackFinder/Tadpole/Washington/2010/2010_X-080.4746_Y0040.2598.png", "longitude": "-80.4746", "county": "", "siteID": "15e10d89-0d80-5c4c-8926-01d34c0c62b0", "year": "2010", "latitude": "40.2598"},{"url": "https://s3.amazonaws.com/FrackFinder/Tadpole/Washington/2005/2005_X-080.4723_Y0040.2778.png", "longitude": "-80.4723", "county": "", "siteID": "d5212ce1-ffab-5feb-ae0b-515d96772e28", "year": "2005", "latitude": "40.2778"},{"url": "https://s3.amazonaws.com/FrackFinder/Tadpole/Washington/2008/2008_X-080.4723_Y0040.2778.png", "longitude": "-80.4723", "county": "", "siteID": "d5212ce1-ffab-5feb-ae0b-515d96772e28", "year": "2008", "latitude": "40.2778"},{"url": "https://s3.amazonaws.com/FrackFinder/Tadpole/Washington/2010/2010_X-080.4723_Y0040.2778.png", "longitude": "-80.4723", "county": "", "siteID": "d5212ce1-ffab-5feb-ae0b-515d96772e28", "year": "2010", "latitude": "40.2778"},{"url": "https://s3.amazonaws.com/FrackFinder/Tadpole/Washington/2005/2005_X-080.4720_Y0040.0974.png", "longitude": "-80.472", "county": "", "siteID": "7448a870-9cce-5b61-831c-630de987bfca", "year": "2005", "latitude": "40.0974"},{"url": "https://s3.amazonaws.com/FrackFinder/Tadpole/Washington/2008/2008_X-080.4720_Y0040.0974.png", "longitude": "-80.472", "county": "", "siteID": "7448a870-9cce-5b61-831c-630de987bfca", "year": "2008", "latitude": "40.0974"},{"url": "https://s3.amazonaws.com/FrackFinder/Tadpole/Washington/2010/2010_X-080.4720_Y0040.0974.png", "longitude": "-80.472", "county": "", "siteID": "7448a870-9cce-5b61-831c-630de987bfca", "year": "2010", "latitude": "40.0974"},{"url": "https://s3.amazonaws.com/FrackFinder/Tadpole/Washington/2005/2005_X-080.4682_Y0040.2011.png", "longitude": "-80.4682", "county": "", "siteID": "01244a5a-6ca8-5944-81e3-f8d6929ff885", "year": "2005", "latitude": "40.2011"},{"url": "https://s3.amazonaws.com/FrackFinder/Tadpole/Washington/2008/2008_X-080.4682_Y0040.2011.png", "longitude": "-80.4682", "county": "", "siteID": "01244a5a-6ca8-5944-81e3-f8d6929ff885", "year": "2008", "latitude": "40.2011"},{"url": "https://s3.amazonaws.com/FrackFinder/Tadpole/Washington/2010/2010_X-080.4682_Y0040.2011.png", "longitude": "-80.4682", "county": "", "siteID": "01244a5a-6ca8-5944-81e3-f8d6929ff885", "year": "2010", "latitude": "40.2011"},{"url": "https://s3.amazonaws.com/FrackFinder/Tadpole/Washington/2005/2005_X-080.4663_Y0040.1727.png", "longitude": "-80.4663", "county": "", "siteID": "18c73070-0fb8-56a4-8972-c3cbc792aa93", "year": "2005", "latitude": "40.1727"},{"url": "https://s3.amazonaws.com/FrackFinder/Tadpole/Washington/2008/2008_X-080.4663_Y0040.1727.png", "longitude": "-80.4663", "county": "", "siteID": "18c73070-0fb8-56a4-8972-c3cbc792aa93", "year": "2008", "latitude": "40.1727"},{"url": "https://s3.amazonaws.com/FrackFinder/Tadpole/Washington/2010/2010_X-080.4663_Y0040.1727.png", "longitude": "-80.4663", "county": "", "siteID": "18c73070-0fb8-56a4-8972-c3cbc792aa93", "year": "2010", "latitude": "40.1727"},{"url": "https://s3.amazonaws.com/FrackFinder/Tadpole/Washington/2005/2005_X-080.4654_Y0040.2634.png", "longitude": "-80.4654", "county": "", "siteID": "042d0de7-9ccd-538e-bbc4-d8bc11971d68", "year": "2005", "latitude": "40.2634"},{"url": "https://s3.amazonaws.com/FrackFinder/Tadpole/Washington/2008/2008_X-080.4654_Y0040.2634.png", "longitude": "-80.4654", "county": "", "siteID": "042d0de7-9ccd-538e-bbc4-d8bc11971d68", "year": "2008", "latitude": "40.2634"},{"url": "https://s3.amazonaws.com/FrackFinder/Tadpole/Washington/2010/2010_X-080.4654_Y0040.2634.png", "longitude": "-80.4654", "county": "", "siteID": "042d0de7-9ccd-538e-bbc4-d8bc11971d68", "year": "2010", "latitude": "40.2634"},{"url": "https://s3.amazonaws.com/FrackFinder/Tadpole/Washington/2005/2005_X-080.4648_Y0040.2401.png", "longitude": "-80.4648", "county": "", "siteID": "5fbb2453-2d20-55ba-828e-4d1510413973", "year": "2005", "latitude": "40.2401"},{"url": "https://s3.amazonaws.com/FrackFinder/Tadpole/Washington/2008/2008_X-080.4648_Y0040.2401.png", "longitude": "-80.4648", "county": "", "siteID": "5fbb2453-2d20-55ba-828e-4d1510413973", "year": "2008", "latitude": "40.2401"},{"url": "https://s3.amazonaws.com/FrackFinder/Tadpole/Washington/2010/2010_X-080.4648_Y0040.2401.png", "longitude": "-80.4648", "county": "", "siteID": "5fbb2453-2d20-55ba-828e-4d1510413973", "year": "2010", "latitude": "40.2401"},{"url": "https://s3.amazonaws.com/FrackFinder/Tadpole/Washington/2005/2005_X-080.4633_Y0040.4057.png", "longitude": "-80.4633", "county": "", "siteID": "2a3b3225-c302-5292-9053-b87e2589ca4a", "year": "2005", "latitude": "40.4057"},{"url": "https://s3.amazonaws.com/FrackFinder/Tadpole/Washington/2008/2008_X-080.4633_Y0040.4057.png", "longitude": "-80.4633", "county": "", "siteID": "2a3b3225-c302-5292-9053-b87e2589ca4a", "year": "2008", "latitude": "40.4057"},{"url": "https://s3.amazonaws.com/FrackFinder/Tadpole/Washington/2010/2010_X-080.4633_Y0040.4057.png", "longitude": "-80.4633", "county": "", "siteID": "2a3b3225-c302-5292-9053-b87e2589ca4a", "year": "2010", "latitude": "40.4057"},{"url": "https://s3.amazonaws.com/FrackFinder/Tadpole/Washington/2005/2005_X-080.4620_Y0040.1369.png", "longitude": "-80.462", "county": "", "siteID": "5667adbe-294c-5341-853a-6c817794bacc", "year": "2005", "latitude": "40.1369"},{"url": "https://s3.amazonaws.com/FrackFinder/Tadpole/Washington/2008/2008_X-080.4620_Y0040.1369.png", "longitude": "-80.462", "county": "", "siteID": "5667adbe-294c-5341-853a-6c817794bacc", "year": "2008", "latitude": "40.1369"},{"url": "https://s3.amazonaws.com/FrackFinder/Tadpole/Washington/2010/2010_X-080.4620_Y0040.1369.png", "longitude": "-80.462", "county": "", "siteID": "5667adbe-294c-5341-853a-6c817794bacc", "year": "2010", "latitude": "40.1369"},{"url": "https://s3.amazonaws.com/FrackFinder/Tadpole/Washington/2005/2005_X-080.4610_Y0040.2929.png", "longitude": "-80.461", "county": "", "siteID": "28eb7627-936b-5408-99a7-ec5f389e73cc", "year": "2005", "latitude": "40.2929"},{"url": "https://s3.amazonaws.com/FrackFinder/Tadpole/Washington/2008/2008_X-080.4610_Y0040.2929.png", "longitude": "-80.461", "county": "", "siteID": "28eb7627-936b-5408-99a7-ec5f389e73cc", "year": "2008", "latitude": "40.2929"},{"url": "https://s3.amazonaws.com/FrackFinder/Tadpole/Washington/2010/2010_X-080.4610_Y0040.2929.png", "longitude": "-80.461", "county": "", "siteID": "28eb7627-936b-5408-99a7-ec5f389e73cc", "year": "2010", "latitude": "40.2929"},{"url": "https://s3.amazonaws.com/FrackFinder/Tadpole/Washington/2005/2005_X-080.4577_Y0040.2174.png", "longitude": "-80.4577", "county": "", "siteID": "abd7b9ce-5e3f-5dc8-a0c6-fc4f9e156312", "year": "2005", "latitude": "40.2174"},{"url": "https://s3.amazonaws.com/FrackFinder/Tadpole/Washington/2008/2008_X-080.4577_Y0040.2174.png", "longitude": "-80.4577", "county": "", "siteID": "abd7b9ce-5e3f-5dc8-a0c6-fc4f9e156312", "year": "2008", "latitude": "40.2174"},{"url": "https://s3.amazonaws.com/FrackFinder/Tadpole/Washington/2010/2010_X-080.4577_Y0040.2174.png", "longitude": "-80.4577", "county": "", "siteID": "abd7b9ce-5e3f-5dc8-a0c6-fc4f9e156312", "year": "2010", "latitude": "40.2174"},{"url": "https://s3.amazonaws.com/FrackFinder/Tadpole/Washington/2005/2005_X-080.4564_Y0040.3274.png", "longitude": "-80.4564", "county": "", "siteID": "0d1c8c88-c250-5508-8771-7a088e1cd25b", "year": "2005", "latitude": "40.3274"},{"url": "https://s3.amazonaws.com/FrackFinder/Tadpole/Washington/2008/2008_X-080.4564_Y0040.3274.png", "longitude": "-80.4564", "county": "", "siteID": "0d1c8c88-c250-5508-8771-7a088e1cd25b", "year": "2008", "latitude": "40.3274"},{"url": "https://s3.amazonaws.com/FrackFinder/Tadpole/Washington/2010/2010_X-080.4564_Y0040.3274.png", "longitude": "-80.4564", "county": "", "siteID": "0d1c8c88-c250-5508-8771-7a088e1cd25b", "year": "2010", "latitude": "40.3274"},{"url": "https://s3.amazonaws.com/FrackFinder/Tadpole/Washington/2005/2005_X-080.4552_Y0040.2781.png", "longitude": "-80.4552", "county": "", "siteID": "9c5ecef9-99e6-50de-8611-3a58d7395b3e", "year": "2005", "latitude": "40.2781"},{"url": "https://s3.amazonaws.com/FrackFinder/Tadpole/Washington/2008/2008_X-080.4552_Y0040.2781.png", "longitude": "-80.4552", "county": "", "siteID": "9c5ecef9-99e6-50de-8611-3a58d7395b3e", "year": "2008", "latitude": "40.2781"},{"url": "https://s3.amazonaws.com/FrackFinder/Tadpole/Washington/2010/2010_X-080.4552_Y0040.2781.png", "longitude": "-80.4552", "county": "", "siteID": "9c5ecef9-99e6-50de-8611-3a58d7395b3e", "year": "2010", "latitude": "40.2781"},{"url": "https://s3.amazonaws.com/FrackFinder/Tadpole/Washington/2005/2005_X-080.4542_Y0040.2424.png", "longitude": "-80.4542", "county": "", "siteID": "8a547ab9-c887-545f-bd49-e38ce100944d", "year": "2005", "latitude": "40.2424"},{"url": "https://s3.amazonaws.com/FrackFinder/Tadpole/Washington/2008/2008_X-080.4542_Y0040.2424.png", "longitude": "-80.4542", "county": "", "siteID": "8a547ab9-c887-545f-bd49-e38ce100944d", "year": "2008", "latitude": "40.2424"},{"url": "https://s3.amazonaws.com/FrackFinder/Tadpole/Washington/2010/2010_X-080.4542_Y0040.2424.png", "longitude": "-80.4542", "county": "", "siteID": "8a547ab9-c887-545f-bd49-e38ce100944d", "year": "2010", "latitude": "40.2424"},{"url": "https://s3.amazonaws.com/FrackFinder/Tadpole/Lawrence/2005/2005_X-080.4470_Y0041.0106.png", "longitude": "-80.447", "county": "", "siteID": "aab4c8fb-f0bd-5112-b312-b56e45f4dabb", "year": "2005", "latitude": "41.0106"},{"url": "https://s3.amazonaws.com/FrackFinder/Tadpole/Lawrence/2008/2008_X-080.4470_Y0041.0106.png", "longitude": "-80.447", "county": "", "siteID": "aab4c8fb-f0bd-5112-b312-b56e45f4dabb", "year": "2008", "latitude": "41.0106"},{"url": "https://s3.amazonaws.com/FrackFinder/Tadpole/Lawrence/2010/2010_X-080.4470_Y0041.0106.png", "longitude": "-80.447", "county": "", "siteID": "aab4c8fb-f0bd-5112-b312-b56e45f4dabb", "year": "2010", "latitude": "41.0106"},{"url": "https://s3.amazonaws.com/FrackFinder/Tadpole/Washington/2005/2005_X-080.4466_Y0040.2834.png", "longitude": "-80.4466", "county": "", "siteID": "3b1e66d1-9fce-5260-98c7-d0504fd441cc", "year": "2005", "latitude": "40.2834"},{"url": "https://s3.amazonaws.com/FrackFinder/Tadpole/Washington/2008/2008_X-080.4466_Y0040.2834.png", "longitude": "-80.4466", "county": "", "siteID": "3b1e66d1-9fce-5260-98c7-d0504fd441cc", "year": "2008", "latitude": "40.2834"},{"url": "https://s3.amazonaws.com/FrackFinder/Tadpole/Washington/2010/2010_X-080.4466_Y0040.2834.png", "longitude": "-80.4466", "county": "", "siteID": "3b1e66d1-9fce-5260-98c7-d0504fd441cc", "year": "2010", "latitude": "40.2834"},{"url": "https://s3.amazonaws.com/FrackFinder/Tadpole/Washington/2005/2005_X-080.4459_Y0040.2265.png", "longitude": "-80.4459", "county": "", "siteID": "311f53cc-4207-5d1d-8aed-7bb2f59fa24a", "year": "2005", "latitude": "40.2265"},{"url": "https://s3.amazonaws.com/FrackFinder/Tadpole/Washington/2008/2008_X-080.4459_Y0040.2265.png", "longitude": "-80.4459", "county": "", "siteID": "311f53cc-4207-5d1d-8aed-7bb2f59fa24a", "year": "2008", "latitude": "40.2265"},{"url": "https://s3.amazonaws.com/FrackFinder/Tadpole/Washington/2010/2010_X-080.4459_Y0040.2265.png", "longitude": "-80.4459", "county": "", "siteID": "311f53cc-4207-5d1d-8aed-7bb2f59fa24a", "year": "2010", "latitude": "40.2265"},{"url": "https://s3.amazonaws.com/FrackFinder/Tadpole/Washington/2005/2005_X-080.4432_Y0040.1864.png", "longitude": "-80.4432", "county": "", "siteID": "df78182c-97eb-5ea2-a10a-629d9486ce5a", "year": "2005", "latitude": "40.1864"},{"url": "https://s3.amazonaws.com/FrackFinder/Tadpole/Washington/2008/2008_X-080.4432_Y0040.1864.png", "longitude": "-80.4432", "county": "", "siteID": "df78182c-97eb-5ea2-a10a-629d9486ce5a", "year": "2008", "latitude": "40.1864"},{"url": "https://s3.amazonaws.com/FrackFinder/Tadpole/Washington/2010/2010_X-080.4432_Y0040.1864.png", "longitude": "-80.4432", "county": "", "siteID": "df78182c-97eb-5ea2-a10a-629d9486ce5a", "year": "2010", "latitude": "40.1864"},{"url": "https://s3.amazonaws.com/FrackFinder/Tadpole/Washington/2005/2005_X-080.4424_Y0040.2029.png", "longitude": "-80.4424", "county": "", "siteID": "997bcceb-2e87-52c3-982f-59f08e0042be", "year": "2005", "latitude": "40.2029"},{"url": "https://s3.amazonaws.com/FrackFinder/Tadpole/Washington/2008/2008_X-080.4424_Y0040.2029.png", "longitude": "-80.4424", "county": "", "siteID": "997bcceb-2e87-52c3-982f-59f08e0042be", "year": "2008", "latitude": "40.2029"},{"url": "https://s3.amazonaws.com/FrackFinder/Tadpole/Washington/2010/2010_X-080.4424_Y0040.2029.png", "longitude": "-80.4424", "county": "", "siteID": "997bcceb-2e87-52c3-982f-59f08e0042be", "year": "2010", "latitude": "40.2029"},{"url": "https://s3.amazonaws.com/FrackFinder/Tadpole/Washington/2005/2005_X-080.4383_Y0040.0636.png", "longitude": "-80.4383", "county": "", "siteID": "1fbfda2b-4446-5900-a8a7-6021e57a761d", "year": "2005", "latitude": "40.0636"},{"url": "https://s3.amazonaws.com/FrackFinder/Tadpole/Washington/2008/2008_X-080.4383_Y0040.0636.png", "longitude": "-80.4383", "county": "", "siteID": "1fbfda2b-4446-5900-a8a7-6021e57a761d", "year": "2008", "latitude": "40.0636"},{"url": "https://s3.amazonaws.com/FrackFinder/Tadpole/Washington/2010/2010_X-080.4383_Y0040.0636.png", "longitude": "-80.4383", "county": "", "siteID": "1fbfda2b-4446-5900-a8a7-6021e57a761d", "year": "2010", "latitude": "40.0636"},{"url": "https://s3.amazonaws.com/FrackFinder/Tadpole/Lawrence/2005/2005_X-080.4324_Y0040.9911.png", "longitude": "-80.4324", "county": "", "siteID": "730a0e18-ec1b-5a5d-9f4b-3d259976735b", "year": "2005", "latitude": "40.9911"},{"url": "https://s3.amazonaws.com/FrackFinder/Tadpole/Lawrence/2008/2008_X-080.4324_Y0040.9911.png", "longitude": "-80.4324", "county": "", "siteID": "730a0e18-ec1b-5a5d-9f4b-3d259976735b", "year": "2008", "latitude": "40.9911"},{"url": "https://s3.amazonaws.com/FrackFinder/Tadpole/Lawrence/2010/2010_X-080.4324_Y0040.9911.png", "longitude": "-80.4324", "county": "", "siteID": "730a0e18-ec1b-5a5d-9f4b-3d259976735b", "year": "2010", "latitude": "40.9911"},{"url": "https://s3.amazonaws.com/FrackFinder/Tadpole/Washington/2005/2005_X-080.4313_Y0040.2850.png", "longitude": "-80.4313", "county": "", "siteID": "2ae80bdc-4cf3-5bae-8f48-f3cf088f0c8b", "year": "2005", "latitude": "40.285"},{"url": "https://s3.amazonaws.com/FrackFinder/Tadpole/Washington/2008/2008_X-080.4313_Y0040.2850.png", "longitude": "-80.4313", "county": "", "siteID": "2ae80bdc-4cf3-5bae-8f48-f3cf088f0c8b", "year": "2008", "latitude": "40.285"},{"url": "https://s3.amazonaws.com/FrackFinder/Tadpole/Washington/2010/2010_X-080.4313_Y0040.2850.png", "longitude": "-80.4313", "county": "", "siteID": "2ae80bdc-4cf3-5bae-8f48-f3cf088f0c8b", "year": "2010", "latitude": "40.285"},{"url": "https://s3.amazonaws.com/FrackFinder/Tadpole/Washington/2005/2005_X-080.4312_Y0040.2719.png", "longitude": "-80.4312", "county": "", "siteID": "066f83dc-cddd-50bb-b6ad-bfb6deef622b", "year": "2005", "latitude": "40.2719"},{"url": "https://s3.amazonaws.com/FrackFinder/Tadpole/Washington/2008/2008_X-080.4312_Y0040.2719.png", "longitude": "-80.4312", "county": "", "siteID": "066f83dc-cddd-50bb-b6ad-bfb6deef622b", "year": "2008", "latitude": "40.2719"},{"url": "https://s3.amazonaws.com/FrackFinder/Tadpole/Washington/2010/2010_X-080.4312_Y0040.2719.png", "longitude": "-80.4312", "county": "", "siteID": "066f83dc-cddd-50bb-b6ad-bfb6deef622b", "year": "2010", "latitude": "40.2719"},{"url": "https://s3.amazonaws.com/FrackFinder/Tadpole/Washington/2005/2005_X-080.4309_Y0040.1316.png", "longitude": "-80.4309", "county": "", "siteID": "2e79cee7-f211-5859-a440-28edd2ea220a", "year": "2005", "latitude": "40.1316"},{"url": "https://s3.amazonaws.com/FrackFinder/Tadpole/Washington/2008/2008_X-080.4309_Y0040.1316.png", "longitude": "-80.4309", "county": "", "siteID": "2e79cee7-f211-5859-a440-28edd2ea220a", "year": "2008", "latitude": "40.1316"},{"url": "https://s3.amazonaws.com/FrackFinder/Tadpole/Washington/2010/2010_X-080.4309_Y0040.1316.png", "longitude": "-80.4309", "county": "", "siteID": "2e79cee7-f211-5859-a440-28edd2ea220a", "year": "2010", "latitude": "40.1316"},{"url": "https://s3.amazonaws.com/FrackFinder/Tadpole/Washington/2005/2005_X-080.4297_Y0040.2055.png", "longitude": "-80.4297", "county": "", "siteID": "4213d39b-651c-5125-a956-12dab725ff04", "year": "2005", "latitude": "40.2055"},{"url": "https://s3.amazonaws.com/FrackFinder/Tadpole/Washington/2008/2008_X-080.4297_Y0040.2055.png", "longitude": "-80.4297", "county": "", "siteID": "4213d39b-651c-5125-a956-12dab725ff04", "year": "2008", "latitude": "40.2055"},{"url": "https://s3.amazonaws.com/FrackFinder/Tadpole/Washington/2010/2010_X-080.4297_Y0040.2055.png", "longitude": "-80.4297", "county": "", "siteID": "4213d39b-651c-5125-a956-12dab725ff04", "year": "2010", "latitude": "40.2055"},{"url": "https://s3.amazonaws.com/FrackFinder/Tadpole/Greene/2005/2005_X-080.4249_Y0039.8522.png", "longitude": "-80.4249", "county": "", "siteID": "9efaf3cd-063a-5127-ade7-06ebcfe4f6e0", "year": "2005", "latitude": "39.8522"},{"url": "https://s3.amazonaws.com/FrackFinder/Tadpole/Greene/2008/2008_X-080.4249_Y0039.8522.png", "longitude": "-80.4249", "county": "", "siteID": "9efaf3cd-063a-5127-ade7-06ebcfe4f6e0", "year": "2008", "latitude": "39.8522"},{"url": "https://s3.amazonaws.com/FrackFinder/Tadpole/Greene/2010/2010_X-080.4249_Y0039.8522.png", "longitude": "-80.4249", "county": "", "siteID": "9efaf3cd-063a-5127-ade7-06ebcfe4f6e0", "year": "2010", "latitude": "39.8522"},{"url": "https://s3.amazonaws.com/FrackFinder/Tadpole/Washington/2005/2005_X-080.4238_Y0040.1455.png", "longitude": "-80.4238", "county": "", "siteID": "d0d15488-fcf6-565f-87e1-346f17607b6f", "year": "2005", "latitude": "40.1455"},{"url": "https://s3.amazonaws.com/FrackFinder/Tadpole/Washington/2008/2008_X-080.4238_Y0040.1455.png", "longitude": "-80.4238", "county": "", "siteID": "d0d15488-fcf6-565f-87e1-346f17607b6f", "year": "2008", "latitude": "40.1455"},{"url": "https://s3.amazonaws.com/FrackFinder/Tadpole/Washington/2010/2010_X-080.4238_Y0040.1455.png", "longitude": "-80.4238", "county": "", "siteID": "d0d15488-fcf6-565f-87e1-346f17607b6f", "year": "2010", "latitude": "40.1455"},{"url": "https://s3.amazonaws.com/FrackFinder/Tadpole/Washington/2005/2005_X-080.4191_Y0040.2054.png", "longitude": "-80.4191", "county": "", "siteID": "63355a58-07ec-580d-ba99-d293d79e7638", "year": "2005", "latitude": "40.2054"},{"url": "https://s3.amazonaws.com/FrackFinder/Tadpole/Washington/2008/2008_X-080.4191_Y0040.2054.png", "longitude": "-80.4191", "county": "", "siteID": "63355a58-07ec-580d-ba99-d293d79e7638", "year": "2008", "latitude": "40.2054"},{"url": "https://s3.amazonaws.com/FrackFinder/Tadpole/Washington/2010/2010_X-080.4191_Y0040.2054.png", "longitude": "-80.4191", "county": "", "siteID": "63355a58-07ec-580d-ba99-d293d79e7638", "year": "2010", "latitude": "40.2054"},{"url": "https://s3.amazonaws.com/FrackFinder/Tadpole/Washington/2005/2005_X-080.4184_Y0040.2222.png", "longitude": "-80.4184", "county": "", "siteID": "57907180-cca6-53fb-b29c-832df9617f8f", "year": "2005", "latitude": "40.2222"},{"url": "https://s3.amazonaws.com/FrackFinder/Tadpole/Washington/2008/2008_X-080.4184_Y0040.2222.png", "longitude": "-80.4184", "county": "", "siteID": "57907180-cca6-53fb-b29c-832df9617f8f", "year": "2008", "latitude": "40.2222"},{"url": "https://s3.amazonaws.com/FrackFinder/Tadpole/Washington/2010/2010_X-080.4184_Y0040.2222.png", "longitude": "-80.4184", "county": "", "siteID": "57907180-cca6-53fb-b29c-832df9617f8f", "year": "2010", "latitude": "40.2222"},{"url": "https://s3.amazonaws.com/FrackFinder/Tadpole/Washington/2005/2005_X-080.4176_Y0040.2342.png", "longitude": "-80.4176", "county": "", "siteID": "dc08634f-bf2c-569e-a2da-ef747dfb0bb0", "year": "2005", "latitude": "40.2342"},{"url": "https://s3.amazonaws.com/FrackFinder/Tadpole/Washington/2008/2008_X-080.4176_Y0040.2342.png", "longitude": "-80.4176", "county": "", "siteID": "dc08634f-bf2c-569e-a2da-ef747dfb0bb0", "year": "2008", "latitude": "40.2342"},{"url": "https://s3.amazonaws.com/FrackFinder/Tadpole/Washington/2010/2010_X-080.4176_Y0040.2342.png", "longitude": "-80.4176", "county": "", "siteID": "dc08634f-bf2c-569e-a2da-ef747dfb0bb0", "year": "2010", "latitude": "40.2342"},{"url": "https://s3.amazonaws.com/FrackFinder/Tadpole/Washington/2005/2005_X-080.4162_Y0040.2292.png", "longitude": "-80.4162", "county": "", "siteID": "3229a341-2525-5070-a93c-91c6660110e8", "year": "2005", "latitude": "40.2292"},{"url": "https://s3.amazonaws.com/FrackFinder/Tadpole/Washington/2008/2008_X-080.4162_Y0040.2292.png", "longitude": "-80.4162", "county": "", "siteID": "3229a341-2525-5070-a93c-91c6660110e8", "year": "2008", "latitude": "40.2292"},{"url": "https://s3.amazonaws.com/FrackFinder/Tadpole/Washington/2010/2010_X-080.4162_Y0040.2292.png", "longitude": "-80.4162", "county": "", "siteID": "3229a341-2525-5070-a93c-91c6660110e8", "year": "2010", "latitude": "40.2292"},{"url": "https://s3.amazonaws.com/FrackFinder/Tadpole/Washington/2005/2005_X-080.4159_Y0040.1515.png", "longitude": "-80.4159", "county": "", "siteID": "e8779aaa-c642-517e-8750-860551f8ce34", "year": "2005", "latitude": "40.1515"},{"url": "https://s3.amazonaws.com/FrackFinder/Tadpole/Washington/2008/2008_X-080.4159_Y0040.1515.png", "longitude": "-80.4159", "county": "", "siteID": "e8779aaa-c642-517e-8750-860551f8ce34", "year": "2008", "latitude": "40.1515"},{"url": "https://s3.amazonaws.com/FrackFinder/Tadpole/Washington/2010/2010_X-080.4159_Y0040.1515.png", "longitude": "-80.4159", "county": "", "siteID": "e8779aaa-c642-517e-8750-860551f8ce34", "year": "2010", "latitude": "40.1515"},{"url": "https://s3.amazonaws.com/FrackFinder/Tadpole/Greene/2005/2005_X-080.4158_Y0039.8074.png", "longitude": "-80.4158", "county": "", "siteID": "767b1542-f974-5324-b060-6626184e9387", "year": "2005", "latitude": "39.8074"},{"url": "https://s3.amazonaws.com/FrackFinder/Tadpole/Greene/2008/2008_X-080.4158_Y0039.8074.png", "longitude": "-80.4158", "county": "", "siteID": "767b1542-f974-5324-b060-6626184e9387", "year": "2008", "latitude": "39.8074"},{"url": "https://s3.amazonaws.com/FrackFinder/Tadpole/Greene/2010/2010_X-080.4158_Y0039.8074.png", "longitude": "-80.4158", "county": "", "siteID": "767b1542-f974-5324-b060-6626184e9387", "year": "2010", "latitude": "39.8074"},{"url": "https://s3.amazonaws.com/FrackFinder/Tadpole/Washington/2005/2005_X-080.4156_Y0040.2872.png", "longitude": "-80.4156", "county": "", "siteID": "98ab066c-201d-5b0b-8501-3aafbe6a23c1", "year": "2005", "latitude": "40.2872"},{"url": "https://s3.amazonaws.com/FrackFinder/Tadpole/Washington/2008/2008_X-080.4156_Y0040.2872.png", "longitude": "-80.4156", "county": "", "siteID": "98ab066c-201d-5b0b-8501-3aafbe6a23c1", "year": "2008", "latitude": "40.2872"},{"url": "https://s3.amazonaws.com/FrackFinder/Tadpole/Washington/2010/2010_X-080.4156_Y0040.2872.png", "longitude": "-80.4156", "county": "", "siteID": "98ab066c-201d-5b0b-8501-3aafbe6a23c1", "year": "2010", "latitude": "40.2872"},{"url": "https://s3.amazonaws.com/FrackFinder/Tadpole/Washington/2005/2005_X-080.4119_Y0040.2367.png", "longitude": "-80.4119", "county": "", "siteID": "410fd6ea-5a02-56ca-afe6-529e8733451d", "year": "2005", "latitude": "40.2367"},{"url": "https://s3.amazonaws.com/FrackFinder/Tadpole/Washington/2008/2008_X-080.4119_Y0040.2367.png", "longitude": "-80.4119", "county": "", "siteID": "410fd6ea-5a02-56ca-afe6-529e8733451d", "year": "2008", "latitude": "40.2367"},{"url": "https://s3.amazonaws.com/FrackFinder/Tadpole/Washington/2010/2010_X-080.4119_Y0040.2367.png", "longitude": "-80.4119", "county": "", "siteID": "410fd6ea-5a02-56ca-afe6-529e8733451d", "year": "2010", "latitude": "40.2367"},{"url": "https://s3.amazonaws.com/FrackFinder/Tadpole/Washington/2005/2005_X-080.4117_Y0040.2965.png", "longitude": "-80.4117", "county": "", "siteID": "78e074d4-af7e-5538-bcf6-95c05f7106e6", "year": "2005", "latitude": "40.2965"},{"url": "https://s3.amazonaws.com/FrackFinder/Tadpole/Washington/2008/2008_X-080.4117_Y0040.2965.png", "longitude": "-80.4117", "county": "", "siteID": "78e074d4-af7e-5538-bcf6-95c05f7106e6", "year": "2008", "latitude": "40.2965"},{"url": "https://s3.amazonaws.com/FrackFinder/Tadpole/Washington/2010/2010_X-080.4117_Y0040.2965.png", "longitude": "-80.4117", "county": "", "siteID": "78e074d4-af7e-5538-bcf6-95c05f7106e6", "year": "2010", "latitude": "40.2965"},{"url": "https://s3.amazonaws.com/FrackFinder/Tadpole/Lawrence/2005/2005_X-080.4114_Y0040.8929.png", "longitude": "-80.4114", "county": "", "siteID": "b7c222f8-d561-58eb-8995-74b74739dbab", "year": "2005", "latitude": "40.8929"},{"url": "https://s3.amazonaws.com/FrackFinder/Tadpole/Lawrence/2008/2008_X-080.4114_Y0040.8929.png", "longitude": "-80.4114", "county": "", "siteID": "b7c222f8-d561-58eb-8995-74b74739dbab", "year": "2008", "latitude": "40.8929"},{"url": "https://s3.amazonaws.com/FrackFinder/Tadpole/Lawrence/2010/2010_X-080.4114_Y0040.8929.png", "longitude": "-80.4114", "county": "", "siteID": "b7c222f8-d561-58eb-8995-74b74739dbab", "year": "2010", "latitude": "40.8929"},{"url": "https://s3.amazonaws.com/FrackFinder/Tadpole/Greene/2005/2005_X-080.4110_Y0039.9032.png", "longitude": "-80.411", "county": "", "siteID": "85059993-a14c-55aa-816c-ff8fba35ca1e", "year": "2005", "latitude": "39.9032"},{"url": "https://s3.amazonaws.com/FrackFinder/Tadpole/Greene/2008/2008_X-080.4110_Y0039.9032.png", "longitude": "-80.411", "county": "", "siteID": "85059993-a14c-55aa-816c-ff8fba35ca1e", "year": "2008", "latitude": "39.9032"},{"url": "https://s3.amazonaws.com/FrackFinder/Tadpole/Greene/2010/2010_X-080.4110_Y0039.9032.png", "longitude": "-80.411", "county": "", "siteID": "85059993-a14c-55aa-816c-ff8fba35ca1e", "year": "2010", "latitude": "39.9032"},{"url": "https://s3.amazonaws.com/FrackFinder/Tadpole/Washington/2005/2005_X-080.4110_Y0040.2439.png", "longitude": "-80.411", "county": "", "siteID": "ae3fa521-4405-5c73-96e1-16c2b4df42c7", "year": "2005", "latitude": "40.2439"},{"url": "https://s3.amazonaws.com/FrackFinder/Tadpole/Washington/2008/2008_X-080.4110_Y0040.2439.png", "longitude": "-80.411", "county": "", "siteID": "ae3fa521-4405-5c73-96e1-16c2b4df42c7", "year": "2008", "latitude": "40.2439"},{"url": "https://s3.amazonaws.com/FrackFinder/Tadpole/Washington/2010/2010_X-080.4110_Y0040.2439.png", "longitude": "-80.411", "county": "", "siteID": "ae3fa521-4405-5c73-96e1-16c2b4df42c7", "year": "2010", "latitude": "40.2439"},{"url": "https://s3.amazonaws.com/FrackFinder/Tadpole/Washington/2005/2005_X-080.4109_Y0040.1790.png", "longitude": "-80.4109", "county": "", "siteID": "4d843a50-b4b4-5c0b-8dd8-e45deacf6542", "year": "2005", "latitude": "40.179"},{"url": "https://s3.amazonaws.com/FrackFinder/Tadpole/Washington/2008/2008_X-080.4109_Y0040.1790.png", "longitude": "-80.4109", "county": "", "siteID": "4d843a50-b4b4-5c0b-8dd8-e45deacf6542", "year": "2008", "latitude": "40.179"},{"url": "https://s3.amazonaws.com/FrackFinder/Tadpole/Washington/2010/2010_X-080.4109_Y0040.1790.png", "longitude": "-80.4109", "county": "", "siteID": "4d843a50-b4b4-5c0b-8dd8-e45deacf6542", "year": "2010", "latitude": "40.179"},{"url": "https://s3.amazonaws.com/FrackFinder/Tadpole/Washington/2005/2005_X-080.4089_Y0040.2635.png", "longitude": "-80.4089", "county": "", "siteID": "c8fa68bb-01f2-564d-98a3-ff83954596bf", "year": "2005", "latitude": "40.2635"},{"url": "https://s3.amazonaws.com/FrackFinder/Tadpole/Washington/2008/2008_X-080.4089_Y0040.2635.png", "longitude": "-80.4089", "county": "", "siteID": "c8fa68bb-01f2-564d-98a3-ff83954596bf", "year": "2008", "latitude": "40.2635"},{"url": "https://s3.amazonaws.com/FrackFinder/Tadpole/Washington/2010/2010_X-080.4089_Y0040.2635.png", "longitude": "-80.4089", "county": "", "siteID": "c8fa68bb-01f2-564d-98a3-ff83954596bf", "year": "2010", "latitude": "40.2635"},{"url": "https://s3.amazonaws.com/FrackFinder/Tadpole/Lawrence/2005/2005_X-080.4076_Y0041.0687.png", "longitude": "-80.4076", "county": "", "siteID": "d66c9ba3-3265-5118-a548-e78c8f1a872b", "year": "2005", "latitude": "41.0687"},{"url": "https://s3.amazonaws.com/FrackFinder/Tadpole/Lawrence/2008/2008_X-080.4076_Y0041.0687.png", "longitude": "-80.4076", "county": "", "siteID": "d66c9ba3-3265-5118-a548-e78c8f1a872b", "year": "2008", "latitude": "41.0687"},{"url": "https://s3.amazonaws.com/FrackFinder/Tadpole/Lawrence/2010/2010_X-080.4076_Y0041.0687.png", "longitude": "-80.4076", "county": "", "siteID": "d66c9ba3-3265-5118-a548-e78c8f1a872b", "year": "2010", "latitude": "41.0687"},{"url": "https://s3.amazonaws.com/FrackFinder/Tadpole/Washington/2005/2005_X-080.4075_Y0040.2994.png", "longitude": "-80.4075", "county": "", "siteID": "bbe4c406-fa38-5b58-b736-79fe8941479c", "year": "2005", "latitude": "40.2994"},{"url": "https://s3.amazonaws.com/FrackFinder/Tadpole/Washington/2008/2008_X-080.4075_Y0040.2994.png", "longitude": "-80.4075", "county": "", "siteID": "bbe4c406-fa38-5b58-b736-79fe8941479c", "year": "2008", "latitude": "40.2994"},{"url": "https://s3.amazonaws.com/FrackFinder/Tadpole/Washington/2010/2010_X-080.4075_Y0040.2994.png", "longitude": "-80.4075", "county": "", "siteID": "bbe4c406-fa38-5b58-b736-79fe8941479c", "year": "2010", "latitude": "40.2994"},{"url": "https://s3.amazonaws.com/FrackFinder/Tadpole/Washington/2005/2005_X-080.4070_Y0040.3095.png", "longitude": "-80.407", "county": "", "siteID": "d62cce40-c76d-510e-a323-ec84e47422bc", "year": "2005", "latitude": "40.3095"},{"url": "https://s3.amazonaws.com/FrackFinder/Tadpole/Washington/2008/2008_X-080.4070_Y0040.3095.png", "longitude": "-80.407", "county": "", "siteID": "d62cce40-c76d-510e-a323-ec84e47422bc", "year": "2008", "latitude": "40.3095"},{"url": "https://s3.amazonaws.com/FrackFinder/Tadpole/Washington/2010/2010_X-080.4070_Y0040.3095.png", "longitude": "-80.407", "county": "", "siteID": "d62cce40-c76d-510e-a323-ec84e47422bc", "year": "2010", "latitude": "40.3095"},{"url": "https://s3.amazonaws.com/FrackFinder/Tadpole/Washington/2005/2005_X-080.4065_Y0040.1796.png", "longitude": "-80.4065", "county": "", "siteID": "47ea359a-1f22-5622-908d-6d0dbbcda56b", "year": "2005", "latitude": "40.1796"},{"url": "https://s3.amazonaws.com/FrackFinder/Tadpole/Washington/2008/2008_X-080.4065_Y0040.1796.png", "longitude": "-80.4065", "county": "", "siteID": "47ea359a-1f22-5622-908d-6d0dbbcda56b", "year": "2008", "latitude": "40.1796"},{"url": "https://s3.amazonaws.com/FrackFinder/Tadpole/Washington/2010/2010_X-080.4065_Y0040.1796.png", "longitude": "-80.4065", "county": "", "siteID": "47ea359a-1f22-5622-908d-6d0dbbcda56b", "year": "2010", "latitude": "40.1796"},{"url": "https://s3.amazonaws.com/FrackFinder/Tadpole/Greene/2005/2005_X-080.4063_Y0039.8460.png", "longitude": "-80.4063", "county": "", "siteID": "d91f70ec-f5d4-5856-b523-d9713380075f", "year": "2005", "latitude": "39.846"},{"url": "https://s3.amazonaws.com/FrackFinder/Tadpole/Greene/2008/2008_X-080.4063_Y0039.8460.png", "longitude": "-80.4063", "county": "", "siteID": "d91f70ec-f5d4-5856-b523-d9713380075f", "year": "2008", "latitude": "39.846"},{"url": "https://s3.amazonaws.com/FrackFinder/Tadpole/Greene/2010/2010_X-080.4063_Y0039.8460.png", "longitude": "-80.4063", "county": "", "siteID": "d91f70ec-f5d4-5856-b523-d9713380075f", "year": "2010", "latitude": "39.846"},{"url": "https://s3.amazonaws.com/FrackFinder/Tadpole/Washington/2005/2005_X-080.4059_Y0040.2381.png", "longitude": "-80.4059", "county": "", "siteID": "172edd7b-490c-5872-b65c-ed21d9743367", "year": "2005", "latitude": "40.2381"},{"url": "https://s3.amazonaws.com/FrackFinder/Tadpole/Washington/2008/2008_X-080.4059_Y0040.2381.png", "longitude": "-80.4059", "county": "", "siteID": "172edd7b-490c-5872-b65c-ed21d9743367", "year": "2008", "latitude": "40.2381"},{"url": "https://s3.amazonaws.com/FrackFinder/Tadpole/Washington/2010/2010_X-080.4059_Y0040.2381.png", "longitude": "-80.4059", "county": "", "siteID": "172edd7b-490c-5872-b65c-ed21d9743367", "year": "2010", "latitude": "40.2381"},{"url": "https://s3.amazonaws.com/FrackFinder/Tadpole/Washington/2005/2005_X-080.4052_Y0040.3431.png", "longitude": "-80.4052", "county": "", "siteID": "75f3bdcb-94a9-5adb-96c7-9b8dc50abbf7", "year": "2005", "latitude": "40.3431"},{"url": "https://s3.amazonaws.com/FrackFinder/Tadpole/Washington/2008/2008_X-080.4052_Y0040.3431.png", "longitude": "-80.4052", "county": "", "siteID": "75f3bdcb-94a9-5adb-96c7-9b8dc50abbf7", "year": "2008", "latitude": "40.3431"},{"url": "https://s3.amazonaws.com/FrackFinder/Tadpole/Washington/2010/2010_X-080.4052_Y0040.3431.png", "longitude": "-80.4052", "county": "", "siteID": "75f3bdcb-94a9-5adb-96c7-9b8dc50abbf7", "year": "2010", "latitude": "40.3431"},{"url": "https://s3.amazonaws.com/FrackFinder/Tadpole/Washington/2005/2005_X-080.4021_Y0040.2701.png", "longitude": "-80.4021", "county": "", "siteID": "f7f508dc-1fca-5aa4-9d81-358fb150e37d", "year": "2005", "latitude": "40.2701"},{"url": "https://s3.amazonaws.com/FrackFinder/Tadpole/Washington/2008/2008_X-080.4021_Y0040.2701.png", "longitude": "-80.4021", "county": "", "siteID": "f7f508dc-1fca-5aa4-9d81-358fb150e37d", "year": "2008", "latitude": "40.2701"},{"url": "https://s3.amazonaws.com/FrackFinder/Tadpole/Washington/2010/2010_X-080.4021_Y0040.2701.png", "longitude": "-80.4021", "county": "", "siteID": "f7f508dc-1fca-5aa4-9d81-358fb150e37d", "year": "2010", "latitude": "40.2701"},{"url": "https://s3.amazonaws.com/FrackFinder/Tadpole/Washington/2005/2005_X-080.3996_Y0040.2095.png", "longitude": "-80.3996", "county": "", "siteID": "7b9b9e59-6c8d-59df-bebf-38caf70b89ff", "year": "2005", "latitude": "40.2095"},{"url": "https://s3.amazonaws.com/FrackFinder/Tadpole/Washington/2008/2008_X-080.3996_Y0040.2095.png", "longitude": "-80.3996", "county": "", "siteID": "7b9b9e59-6c8d-59df-bebf-38caf70b89ff", "year": "2008", "latitude": "40.2095"},{"url": "https://s3.amazonaws.com/FrackFinder/Tadpole/Washington/2010/2010_X-080.3996_Y0040.2095.png", "longitude": "-80.3996", "county": "", "siteID": "7b9b9e59-6c8d-59df-bebf-38caf70b89ff", "year": "2010", "latitude": "40.2095"},{"url": "https://s3.amazonaws.com/FrackFinder/Tadpole/Washington/2005/2005_X-080.3982_Y0040.2704.png", "longitude": "-80.3982", "county": "", "siteID": "79c88f16-61e4-5c20-afe0-b4018c7b66c9", "year": "2005", "latitude": "40.2704"},{"url": "https://s3.amazonaws.com/FrackFinder/Tadpole/Washington/2008/2008_X-080.3982_Y0040.2704.png", "longitude": "-80.3982", "county": "", "siteID": "79c88f16-61e4-5c20-afe0-b4018c7b66c9", "year": "2008", "latitude": "40.2704"},{"url": "https://s3.amazonaws.com/FrackFinder/Tadpole/Washington/2010/2010_X-080.3982_Y0040.2704.png", "longitude": "-80.3982", "county": "", "siteID": "79c88f16-61e4-5c20-afe0-b4018c7b66c9", "year": "2010", "latitude": "40.2704"},{"url": "https://s3.amazonaws.com/FrackFinder/Tadpole/Washington/2005/2005_X-080.3943_Y0040.3442.png", "longitude": "-80.3943", "county": "", "siteID": "94d7d4be-6978-5b4b-974c-27b07724c9e2", "year": "2005", "latitude": "40.3442"},{"url": "https://s3.amazonaws.com/FrackFinder/Tadpole/Washington/2008/2008_X-080.3943_Y0040.3442.png", "longitude": "-80.3943", "county": "", "siteID": "94d7d4be-6978-5b4b-974c-27b07724c9e2", "year": "2008", "latitude": "40.3442"},{"url": "https://s3.amazonaws.com/FrackFinder/Tadpole/Washington/2010/2010_X-080.3943_Y0040.3442.png", "longitude": "-80.3943", "county": "", "siteID": "94d7d4be-6978-5b4b-974c-27b07724c9e2", "year": "2010", "latitude": "40.3442"},{"url": "https://s3.amazonaws.com/FrackFinder/Tadpole/Greene/2005/2005_X-080.3938_Y0039.9254.png", "longitude": "-80.3938", "county": "", "siteID": "b590b756-2df2-511c-94a3-5c181ccce594", "year": "2005", "latitude": "39.9254"},{"url": "https://s3.amazonaws.com/FrackFinder/Tadpole/Greene/2008/2008_X-080.3938_Y0039.9254.png", "longitude": "-80.3938", "county": "", "siteID": "b590b756-2df2-511c-94a3-5c181ccce594", "year": "2008", "latitude": "39.9254"},{"url": "https://s3.amazonaws.com/FrackFinder/Tadpole/Greene/2010/2010_X-080.3938_Y0039.9254.png", "longitude": "-80.3938", "county": "", "siteID": "b590b756-2df2-511c-94a3-5c181ccce594", "year": "2010", "latitude": "39.9254"},{"url": "https://s3.amazonaws.com/FrackFinder/Tadpole/Washington/2005/2005_X-080.3913_Y0040.2747.png", "longitude": "-80.3913", "county": "", "siteID": "d175709c-259e-5d0f-b330-16368d06881a", "year": "2005", "latitude": "40.2747"},{"url": "https://s3.amazonaws.com/FrackFinder/Tadpole/Washington/2008/2008_X-080.3913_Y0040.2747.png", "longitude": "-80.3913", "county": "", "siteID": "d175709c-259e-5d0f-b330-16368d06881a", "year": "2008", "latitude": "40.2747"},{"url": "https://s3.amazonaws.com/FrackFinder/Tadpole/Washington/2010/2010_X-080.3913_Y0040.2747.png", "longitude": "-80.3913", "county": "", "siteID": "d175709c-259e-5d0f-b330-16368d06881a", "year": "2010", "latitude": "40.2747"},{"url": "https://s3.amazonaws.com/FrackFinder/Tadpole/Washington/2005/2005_X-080.3912_Y0040.2463.png", "longitude": "-80.3912", "county": "", "siteID": "f29e69e5-07ce-5600-84f0-8365ef70726c", "year": "2005", "latitude": "40.2463"},{"url": "https://s3.amazonaws.com/FrackFinder/Tadpole/Washington/2008/2008_X-080.3912_Y0040.2463.png", "longitude": "-80.3912", "county": "", "siteID": "f29e69e5-07ce-5600-84f0-8365ef70726c", "year": "2008", "latitude": "40.2463"},{"url": "https://s3.amazonaws.com/FrackFinder/Tadpole/Washington/2010/2010_X-080.3912_Y0040.2463.png", "longitude": "-80.3912", "county": "", "siteID": "f29e69e5-07ce-5600-84f0-8365ef70726c", "year": "2010", "latitude": "40.2463"},{"url": "https://s3.amazonaws.com/FrackFinder/Tadpole/Washington/2005/2005_X-080.3910_Y0040.2611.png", "longitude": "-80.391", "county": "", "siteID": "ac1fe70f-06a7-51a2-bbad-f0188df47484", "year": "2005", "latitude": "40.2611"},{"url": "https://s3.amazonaws.com/FrackFinder/Tadpole/Washington/2008/2008_X-080.3910_Y0040.2611.png", "longitude": "-80.391", "county": "", "siteID": "ac1fe70f-06a7-51a2-bbad-f0188df47484", "year": "2008", "latitude": "40.2611"},{"url": "https://s3.amazonaws.com/FrackFinder/Tadpole/Washington/2010/2010_X-080.3910_Y0040.2611.png", "longitude": "-80.391", "county": "", "siteID": "ac1fe70f-06a7-51a2-bbad-f0188df47484", "year": "2010", "latitude": "40.2611"},{"url": "https://s3.amazonaws.com/FrackFinder/Tadpole/Washington/2005/2005_X-080.3910_Y0040.2933.png", "longitude": "-80.391", "county": "", "siteID": "48bd089c-7a7f-5a91-b125-02b5d779b37d", "year": "2005", "latitude": "40.2933"},{"url": "https://s3.amazonaws.com/FrackFinder/Tadpole/Washington/2008/2008_X-080.3910_Y0040.2933.png", "longitude": "-80.391", "county": "", "siteID": "48bd089c-7a7f-5a91-b125-02b5d779b37d", "year": "2008", "latitude": "40.2933"},{"url": "https://s3.amazonaws.com/FrackFinder/Tadpole/Washington/2010/2010_X-080.3910_Y0040.2933.png", "longitude": "-80.391", "county": "", "siteID": "48bd089c-7a7f-5a91-b125-02b5d779b37d", "year": "2010", "latitude": "40.2933"},{"url": "https://s3.amazonaws.com/FrackFinder/Tadpole/Washington/2005/2005_X-080.3904_Y0040.2691.png", "longitude": "-80.3904", "county": "", "siteID": "d041365e-7d16-51fe-b1a1-68b3448363b5", "year": "2005", "latitude": "40.2691"},{"url": "https://s3.amazonaws.com/FrackFinder/Tadpole/Washington/2008/2008_X-080.3904_Y0040.2691.png", "longitude": "-80.3904", "county": "", "siteID": "d041365e-7d16-51fe-b1a1-68b3448363b5", "year": "2008", "latitude": "40.2691"},{"url": "https://s3.amazonaws.com/FrackFinder/Tadpole/Washington/2010/2010_X-080.3904_Y0040.2691.png", "longitude": "-80.3904", "county": "", "siteID": "d041365e-7d16-51fe-b1a1-68b3448363b5", "year": "2010", "latitude": "40.2691"},{"url": "https://s3.amazonaws.com/FrackFinder/Tadpole/Washington/2005/2005_X-080.3900_Y0040.4055.png", "longitude": "-80.39", "county": "", "siteID": "f146c5aa-8f3d-51a1-a5d9-42087d8a8888", "year": "2005", "latitude": "40.4055"},{"url": "https://s3.amazonaws.com/FrackFinder/Tadpole/Washington/2008/2008_X-080.3900_Y0040.4055.png", "longitude": "-80.39", "county": "", "siteID": "f146c5aa-8f3d-51a1-a5d9-42087d8a8888", "year": "2008", "latitude": "40.4055"},{"url": "https://s3.amazonaws.com/FrackFinder/Tadpole/Washington/2010/2010_X-080.3900_Y0040.4055.png", "longitude": "-80.39", "county": "", "siteID": "f146c5aa-8f3d-51a1-a5d9-42087d8a8888", "year": "2010", "latitude": "40.4055"},{"url": "https://s3.amazonaws.com/FrackFinder/Tadpole/Washington/2005/2005_X-080.3892_Y0040.1432.png", "longitude": "-80.3892", "county": "", "siteID": "0653ee5d-7b2f-5701-86b9-64efcdf41064", "year": "2005", "latitude": "40.1432"},{"url": "https://s3.amazonaws.com/FrackFinder/Tadpole/Washington/2008/2008_X-080.3892_Y0040.1432.png", "longitude": "-80.3892", "county": "", "siteID": "0653ee5d-7b2f-5701-86b9-64efcdf41064", "year": "2008", "latitude": "40.1432"},{"url": "https://s3.amazonaws.com/FrackFinder/Tadpole/Washington/2010/2010_X-080.3892_Y0040.1432.png", "longitude": "-80.3892", "county": "", "siteID": "0653ee5d-7b2f-5701-86b9-64efcdf41064", "year": "2010", "latitude": "40.1432"},{"url": "https://s3.amazonaws.com/FrackFinder/Tadpole/Washington/2005/2005_X-080.3880_Y0040.2628.png", "longitude": "-80.388", "county": "", "siteID": "dd112f31-50d6-5457-a5ed-2d25f6193b7a", "year": "2005", "latitude": "40.2628"},{"url": "https://s3.amazonaws.com/FrackFinder/Tadpole/Washington/2008/2008_X-080.3880_Y0040.2628.png", "longitude": "-80.388", "county": "", "siteID": "dd112f31-50d6-5457-a5ed-2d25f6193b7a", "year": "2008", "latitude": "40.2628"},{"url": "https://s3.amazonaws.com/FrackFinder/Tadpole/Washington/2010/2010_X-080.3880_Y0040.2628.png", "longitude": "-80.388", "county": "", "siteID": "dd112f31-50d6-5457-a5ed-2d25f6193b7a", "year": "2010", "latitude": "40.2628"},{"url": "https://s3.amazonaws.com/FrackFinder/Tadpole/Washington/2005/2005_X-080.3861_Y0040.2072.png", "longitude": "-80.3861", "county": "", "siteID": "4b0152c9-6f35-5ad5-ae14-3c4a6afa8d06", "year": "2005", "latitude": "40.2072"},{"url": "https://s3.amazonaws.com/FrackFinder/Tadpole/Washington/2008/2008_X-080.3861_Y0040.2072.png", "longitude": "-80.3861", "county": "", "siteID": "4b0152c9-6f35-5ad5-ae14-3c4a6afa8d06", "year": "2008", "latitude": "40.2072"},{"url": "https://s3.amazonaws.com/FrackFinder/Tadpole/Washington/2010/2010_X-080.3861_Y0040.2072.png", "longitude": "-80.3861", "county": "", "siteID": "4b0152c9-6f35-5ad5-ae14-3c4a6afa8d06", "year": "2010", "latitude": "40.2072"},{"url": "https://s3.amazonaws.com/FrackFinder/Tadpole/Washington/2005/2005_X-080.3852_Y0040.2694.png", "longitude": "-80.3852", "county": "", "siteID": "6ab7bf3a-536a-5d76-abf6-7a66061f5bb1", "year": "2005", "latitude": "40.2694"},{"url": "https://s3.amazonaws.com/FrackFinder/Tadpole/Washington/2008/2008_X-080.3852_Y0040.2694.png", "longitude": "-80.3852", "county": "", "siteID": "6ab7bf3a-536a-5d76-abf6-7a66061f5bb1", "year": "2008", "latitude": "40.2694"},{"url": "https://s3.amazonaws.com/FrackFinder/Tadpole/Washington/2010/2010_X-080.3852_Y0040.2694.png", "longitude": "-80.3852", "county": "", "siteID": "6ab7bf3a-536a-5d76-abf6-7a66061f5bb1", "year": "2010", "latitude": "40.2694"},{"url": "https://s3.amazonaws.com/FrackFinder/Tadpole/Washington/2005/2005_X-080.3842_Y0040.2721.png", "longitude": "-80.3842", "county": "", "siteID": "ae7f7b54-7ced-5c03-84d2-1f7fd82feef6", "year": "2005", "latitude": "40.2721"},{"url": "https://s3.amazonaws.com/FrackFinder/Tadpole/Washington/2008/2008_X-080.3842_Y0040.2721.png", "longitude": "-80.3842", "county": "", "siteID": "ae7f7b54-7ced-5c03-84d2-1f7fd82feef6", "year": "2008", "latitude": "40.2721"},{"url": "https://s3.amazonaws.com/FrackFinder/Tadpole/Washington/2010/2010_X-080.3842_Y0040.2721.png", "longitude": "-80.3842", "county": "", "siteID": "ae7f7b54-7ced-5c03-84d2-1f7fd82feef6", "year": "2010", "latitude": "40.2721"},{"url": "https://s3.amazonaws.com/FrackFinder/Tadpole/Greene/2005/2005_X-080.3822_Y0039.8789.png", "longitude": "-80.3822", "county": "", "siteID": "20013aa9-b214-5fb0-b08e-1901929dc780", "year": "2005", "latitude": "39.8789"},{"url": "https://s3.amazonaws.com/FrackFinder/Tadpole/Greene/2008/2008_X-080.3822_Y0039.8789.png", "longitude": "-80.3822", "county": "", "siteID": "20013aa9-b214-5fb0-b08e-1901929dc780", "year": "2008", "latitude": "39.8789"},{"url": "https://s3.amazonaws.com/FrackFinder/Tadpole/Greene/2010/2010_X-080.3822_Y0039.8789.png", "longitude": "-80.3822", "county": "", "siteID": "20013aa9-b214-5fb0-b08e-1901929dc780", "year": "2010", "latitude": "39.8789"},{"url": "https://s3.amazonaws.com/FrackFinder/Tadpole/Washington/2005/2005_X-080.3813_Y0040.2467.png", "longitude": "-80.3813", "county": "", "siteID": "86effefb-4b1f-57d7-adb6-ca69c86b9899", "year": "2005", "latitude": "40.2467"},{"url": "https://s3.amazonaws.com/FrackFinder/Tadpole/Washington/2008/2008_X-080.3813_Y0040.2467.png", "longitude": "-80.3813", "county": "", "siteID": "86effefb-4b1f-57d7-adb6-ca69c86b9899", "year": "2008", "latitude": "40.2467"},{"url": "https://s3.amazonaws.com/FrackFinder/Tadpole/Washington/2010/2010_X-080.3813_Y0040.2467.png", "longitude": "-80.3813", "county": "", "siteID": "86effefb-4b1f-57d7-adb6-ca69c86b9899", "year": "2010", "latitude": "40.2467"},{"url": "https://s3.amazonaws.com/FrackFinder/Tadpole/Washington/2005/2005_X-080.3800_Y0040.2806.png", "longitude": "-80.38", "county": "", "siteID": "ad7fc8dc-6147-5f2a-8802-99749641714b", "year": "2005", "latitude": "40.2806"},{"url": "https://s3.amazonaws.com/FrackFinder/Tadpole/Washington/2008/2008_X-080.3800_Y0040.2806.png", "longitude": "-80.38", "county": "", "siteID": "ad7fc8dc-6147-5f2a-8802-99749641714b", "year": "2008", "latitude": "40.2806"},{"url": "https://s3.amazonaws.com/FrackFinder/Tadpole/Washington/2010/2010_X-080.3800_Y0040.2806.png", "longitude": "-80.38", "county": "", "siteID": "ad7fc8dc-6147-5f2a-8802-99749641714b", "year": "2010", "latitude": "40.2806"},{"url": "https://s3.amazonaws.com/FrackFinder/Tadpole/Washington/2005/2005_X-080.3797_Y0040.2992.png", "longitude": "-80.3797", "county": "", "siteID": "85b92c7d-80e4-5793-9340-fe8a7084d529", "year": "2005", "latitude": "40.2992"},{"url": "https://s3.amazonaws.com/FrackFinder/Tadpole/Washington/2008/2008_X-080.3797_Y0040.2992.png", "longitude": "-80.3797", "county": "", "siteID": "85b92c7d-80e4-5793-9340-fe8a7084d529", "year": "2008", "latitude": "40.2992"},{"url": "https://s3.amazonaws.com/FrackFinder/Tadpole/Washington/2010/2010_X-080.3797_Y0040.2992.png", "longitude": "-80.3797", "county": "", "siteID": "85b92c7d-80e4-5793-9340-fe8a7084d529", "year": "2010", "latitude": "40.2992"},{"url": "https://s3.amazonaws.com/FrackFinder/Tadpole/Washington/2005/2005_X-080.3794_Y0040.2262.png", "longitude": "-80.3794", "county": "", "siteID": "2935e0c5-ee81-5569-b005-56bc8d04fe29", "year": "2005", "latitude": "40.2262"},{"url": "https://s3.amazonaws.com/FrackFinder/Tadpole/Washington/2008/2008_X-080.3794_Y0040.2262.png", "longitude": "-80.3794", "county": "", "siteID": "2935e0c5-ee81-5569-b005-56bc8d04fe29", "year": "2008", "latitude": "40.2262"},{"url": "https://s3.amazonaws.com/FrackFinder/Tadpole/Washington/2010/2010_X-080.3794_Y0040.2262.png", "longitude": "-80.3794", "county": "", "siteID": "2935e0c5-ee81-5569-b005-56bc8d04fe29", "year": "2010", "latitude": "40.2262"},{"url": "https://s3.amazonaws.com/FrackFinder/Tadpole/Greene/2005/2005_X-080.3787_Y0039.7351.png", "longitude": "-80.3787", "county": "", "siteID": "6763779e-a4a2-5c5f-9076-886fb63636a9", "year": "2005", "latitude": "39.7351"},{"url": "https://s3.amazonaws.com/FrackFinder/Tadpole/Greene/2008/2008_X-080.3787_Y0039.7351.png", "longitude": "-80.3787", "county": "", "siteID": "6763779e-a4a2-5c5f-9076-886fb63636a9", "year": "2008", "latitude": "39.7351"},{"url": "https://s3.amazonaws.com/FrackFinder/Tadpole/Greene/2010/2010_X-080.3787_Y0039.7351.png", "longitude": "-80.3787", "county": "", "siteID": "6763779e-a4a2-5c5f-9076-886fb63636a9", "year": "2010", "latitude": "39.7351"},{"url": "https://s3.amazonaws.com/FrackFinder/Tadpole/Washington/2005/2005_X-080.3786_Y0040.2507.png", "longitude": "-80.3786", "county": "", "siteID": "97ef8b71-bf2d-533a-a79a-b79d29edf71e", "year": "2005", "latitude": "40.2507"},{"url": "https://s3.amazonaws.com/FrackFinder/Tadpole/Washington/2008/2008_X-080.3786_Y0040.2507.png", "longitude": "-80.3786", "county": "", "siteID": "97ef8b71-bf2d-533a-a79a-b79d29edf71e", "year": "2008", "latitude": "40.2507"},{"url": "https://s3.amazonaws.com/FrackFinder/Tadpole/Washington/2010/2010_X-080.3786_Y0040.2507.png", "longitude": "-80.3786", "county": "", "siteID": "97ef8b71-bf2d-533a-a79a-b79d29edf71e", "year": "2010", "latitude": "40.2507"},{"url": "https://s3.amazonaws.com/FrackFinder/Tadpole/Washington/2005/2005_X-080.3786_Y0040.2987.png", "longitude": "-80.3786", "county": "", "siteID": "116b0246-a9f3-5570-864c-d4a54ac6fedf", "year": "2005", "latitude": "40.2987"},{"url": "https://s3.amazonaws.com/FrackFinder/Tadpole/Washington/2008/2008_X-080.3786_Y0040.2987.png", "longitude": "-80.3786", "county": "", "siteID": "116b0246-a9f3-5570-864c-d4a54ac6fedf", "year": "2008", "latitude": "40.2987"},{"url": "https://s3.amazonaws.com/FrackFinder/Tadpole/Washington/2010/2010_X-080.3786_Y0040.2987.png", "longitude": "-80.3786", "county": "", "siteID": "116b0246-a9f3-5570-864c-d4a54ac6fedf", "year": "2010", "latitude": "40.2987"},{"url": "https://s3.amazonaws.com/FrackFinder/Tadpole/Greene/2005/2005_X-080.3781_Y0039.9711.png", "longitude": "-80.3781", "county": "", "siteID": "93c32435-53df-57f0-a15d-5ae659c064a1", "year": "2005", "latitude": "39.9711"},{"url": "https://s3.amazonaws.com/FrackFinder/Tadpole/Greene/2008/2008_X-080.3781_Y0039.9711.png", "longitude": "-80.3781", "county": "", "siteID": "93c32435-53df-57f0-a15d-5ae659c064a1", "year": "2008", "latitude": "39.9711"},{"url": "https://s3.amazonaws.com/FrackFinder/Tadpole/Greene/2010/2010_X-080.3781_Y0039.9711.png", "longitude": "-80.3781", "county": "", "siteID": "93c32435-53df-57f0-a15d-5ae659c064a1", "year": "2010", "latitude": "39.9711"},{"url": "https://s3.amazonaws.com/FrackFinder/Tadpole/Washington/2005/2005_X-080.3779_Y0040.2548.png", "longitude": "-80.3779", "county": "", "siteID": "24e7ea91-23eb-5d92-8fa5-01781e270ed4", "year": "2005", "latitude": "40.2548"},{"url": "https://s3.amazonaws.com/FrackFinder/Tadpole/Washington/2008/2008_X-080.3779_Y0040.2548.png", "longitude": "-80.3779", "county": "", "siteID": "24e7ea91-23eb-5d92-8fa5-01781e270ed4", "year": "2008", "latitude": "40.2548"},{"url": "https://s3.amazonaws.com/FrackFinder/Tadpole/Washington/2010/2010_X-080.3779_Y0040.2548.png", "longitude": "-80.3779", "county": "", "siteID": "24e7ea91-23eb-5d92-8fa5-01781e270ed4", "year": "2010", "latitude": "40.2548"},{"url": "https://s3.amazonaws.com/FrackFinder/Tadpole/Washington/2005/2005_X-080.3773_Y0040.2702.png", "longitude": "-80.3773", "county": "", "siteID": "212c4128-615a-5597-9ed1-fca2b347df5b", "year": "2005", "latitude": "40.2702"},{"url": "https://s3.amazonaws.com/FrackFinder/Tadpole/Washington/2008/2008_X-080.3773_Y0040.2702.png", "longitude": "-80.3773", "county": "", "siteID": "212c4128-615a-5597-9ed1-fca2b347df5b", "year": "2008", "latitude": "40.2702"},{"url": "https://s3.amazonaws.com/FrackFinder/Tadpole/Washington/2010/2010_X-080.3773_Y0040.2702.png", "longitude": "-80.3773", "county": "", "siteID": "212c4128-615a-5597-9ed1-fca2b347df5b", "year": "2010", "latitude": "40.2702"},{"url": "https://s3.amazonaws.com/FrackFinder/Tadpole/Washington/2005/2005_X-080.3765_Y0040.4036.png", "longitude": "-80.3765", "county": "", "siteID": "ef744082-3288-5cb3-83b0-3f677763d1c9", "year": "2005", "latitude": "40.4036"},{"url": "https://s3.amazonaws.com/FrackFinder/Tadpole/Washington/2008/2008_X-080.3765_Y0040.4036.png", "longitude": "-80.3765", "county": "", "siteID": "ef744082-3288-5cb3-83b0-3f677763d1c9", "year": "2008", "latitude": "40.4036"},{"url": "https://s3.amazonaws.com/FrackFinder/Tadpole/Washington/2010/2010_X-080.3765_Y0040.4036.png", "longitude": "-80.3765", "county": "", "siteID": "ef744082-3288-5cb3-83b0-3f677763d1c9", "year": "2010", "latitude": "40.4036"},{"url": "https://s3.amazonaws.com/FrackFinder/Tadpole/Washington/2005/2005_X-080.3760_Y0040.2607.png", "longitude": "-80.376", "county": "", "siteID": "f80e1a30-e859-52c1-be23-0075840aa0ca", "year": "2005", "latitude": "40.2607"},{"url": "https://s3.amazonaws.com/FrackFinder/Tadpole/Washington/2008/2008_X-080.3760_Y0040.2607.png", "longitude": "-80.376", "county": "", "siteID": "f80e1a30-e859-52c1-be23-0075840aa0ca", "year": "2008", "latitude": "40.2607"},{"url": "https://s3.amazonaws.com/FrackFinder/Tadpole/Washington/2010/2010_X-080.3760_Y0040.2607.png", "longitude": "-80.376", "county": "", "siteID": "f80e1a30-e859-52c1-be23-0075840aa0ca", "year": "2010", "latitude": "40.2607"},{"url": "https://s3.amazonaws.com/FrackFinder/Tadpole/Washington/2005/2005_X-080.3729_Y0040.3255.png", "longitude": "-80.3729", "county": "", "siteID": "d85e34f0-1a2b-5a0d-91f6-f8c4d46e9295", "year": "2005", "latitude": "40.3255"},{"url": "https://s3.amazonaws.com/FrackFinder/Tadpole/Washington/2008/2008_X-080.3729_Y0040.3255.png", "longitude": "-80.3729", "county": "", "siteID": "d85e34f0-1a2b-5a0d-91f6-f8c4d46e9295", "year": "2008", "latitude": "40.3255"},{"url": "https://s3.amazonaws.com/FrackFinder/Tadpole/Washington/2010/2010_X-080.3729_Y0040.3255.png", "longitude": "-80.3729", "county": "", "siteID": "d85e34f0-1a2b-5a0d-91f6-f8c4d46e9295", "year": "2010", "latitude": "40.3255"},{"url": "https://s3.amazonaws.com/FrackFinder/Tadpole/Greene/2005/2005_X-080.3724_Y0039.9845.png", "longitude": "-80.3724", "county": "", "siteID": "b6032d48-0ccb-5ed6-a786-1490f3d0f7d2", "year": "2005", "latitude": "39.9845"},{"url": "https://s3.amazonaws.com/FrackFinder/Tadpole/Greene/2008/2008_X-080.3724_Y0039.9845.png", "longitude": "-80.3724", "county": "", "siteID": "b6032d48-0ccb-5ed6-a786-1490f3d0f7d2", "year": "2008", "latitude": "39.9845"},{"url": "https://s3.amazonaws.com/FrackFinder/Tadpole/Greene/2010/2010_X-080.3724_Y0039.9845.png", "longitude": "-80.3724", "county": "", "siteID": "b6032d48-0ccb-5ed6-a786-1490f3d0f7d2", "year": "2010", "latitude": "39.9845"},{"url": "https://s3.amazonaws.com/FrackFinder/Tadpole/Washington/2005/2005_X-080.3718_Y0040.2620.png", "longitude": "-80.3718", "county": "", "siteID": "bb88902c-7751-5bed-a6e2-226bd9e120d1", "year": "2005", "latitude": "40.262"},{"url": "https://s3.amazonaws.com/FrackFinder/Tadpole/Washington/2008/2008_X-080.3718_Y0040.2620.png", "longitude": "-80.3718", "county": "", "siteID": "bb88902c-7751-5bed-a6e2-226bd9e120d1", "year": "2008", "latitude": "40.262"},{"url": "https://s3.amazonaws.com/FrackFinder/Tadpole/Washington/2010/2010_X-080.3718_Y0040.2620.png", "longitude": "-80.3718", "county": "", "siteID": "bb88902c-7751-5bed-a6e2-226bd9e120d1", "year": "2010", "latitude": "40.262"},{"url": "https://s3.amazonaws.com/FrackFinder/Tadpole/Washington/2005/2005_X-080.3711_Y0040.2689.png", "longitude": "-80.3711", "county": "", "siteID": "064b58f5-f986-548a-a3cf-5bbab52c0c2e", "year": "2005", "latitude": "40.2689"},{"url": "https://s3.amazonaws.com/FrackFinder/Tadpole/Washington/2008/2008_X-080.3711_Y0040.2689.png", "longitude": "-80.3711", "county": "", "siteID": "064b58f5-f986-548a-a3cf-5bbab52c0c2e", "year": "2008", "latitude": "40.2689"},{"url": "https://s3.amazonaws.com/FrackFinder/Tadpole/Washington/2010/2010_X-080.3711_Y0040.2689.png", "longitude": "-80.3711", "county": "", "siteID": "064b58f5-f986-548a-a3cf-5bbab52c0c2e", "year": "2010", "latitude": "40.2689"},{"url": "https://s3.amazonaws.com/FrackFinder/Tadpole/Greene/2005/2005_X-080.3692_Y0039.9745.png", "longitude": "-80.3692", "county": "", "siteID": "6cc24516-b36a-5808-ace7-a9cedf88981c", "year": "2005", "latitude": "39.9745"},{"url": "https://s3.amazonaws.com/FrackFinder/Tadpole/Greene/2008/2008_X-080.3692_Y0039.9745.png", "longitude": "-80.3692", "county": "", "siteID": "6cc24516-b36a-5808-ace7-a9cedf88981c", "year": "2008", "latitude": "39.9745"},{"url": "https://s3.amazonaws.com/FrackFinder/Tadpole/Greene/2010/2010_X-080.3692_Y0039.9745.png", "longitude": "-80.3692", "county": "", "siteID": "6cc24516-b36a-5808-ace7-a9cedf88981c", "year": "2010", "latitude": "39.9745"},{"url": "https://s3.amazonaws.com/FrackFinder/Tadpole/Washington/2005/2005_X-080.3678_Y0040.2510.png", "longitude": "-80.3678", "county": "", "siteID": "794b486d-9c16-58b2-8a26-ec2c77bc59f7", "year": "2005", "latitude": "40.251"},{"url": "https://s3.amazonaws.com/FrackFinder/Tadpole/Washington/2008/2008_X-080.3678_Y0040.2510.png", "longitude": "-80.3678", "county": "", "siteID": "794b486d-9c16-58b2-8a26-ec2c77bc59f7", "year": "2008", "latitude": "40.251"},{"url": "https://s3.amazonaws.com/FrackFinder/Tadpole/Washington/2010/2010_X-080.3678_Y0040.2510.png", "longitude": "-80.3678", "county": "", "siteID": "794b486d-9c16-58b2-8a26-ec2c77bc59f7", "year": "2010", "latitude": "40.251"},{"url": "https://s3.amazonaws.com/FrackFinder/Tadpole/Washington/2005/2005_X-080.3672_Y0040.2068.png", "longitude": "-80.3672", "county": "", "siteID": "42ae4815-6d54-5741-8fb9-5bef908ddc94", "year": "2005", "latitude": "40.2068"},{"url": "https://s3.amazonaws.com/FrackFinder/Tadpole/Washington/2008/2008_X-080.3672_Y0040.2068.png", "longitude": "-80.3672", "county": "", "siteID": "42ae4815-6d54-5741-8fb9-5bef908ddc94", "year": "2008", "latitude": "40.2068"},{"url": "https://s3.amazonaws.com/FrackFinder/Tadpole/Washington/2010/2010_X-080.3672_Y0040.2068.png", "longitude": "-80.3672", "county": "", "siteID": "42ae4815-6d54-5741-8fb9-5bef908ddc94", "year": "2010", "latitude": "40.2068"},{"url": "https://s3.amazonaws.com/FrackFinder/Tadpole/Washington/2005/2005_X-080.3660_Y0040.2654.png", "longitude": "-80.366", "county": "", "siteID": "aa0764b3-df9d-57ca-b849-c8d66bb02653", "year": "2005", "latitude": "40.2654"},{"url": "https://s3.amazonaws.com/FrackFinder/Tadpole/Washington/2008/2008_X-080.3660_Y0040.2654.png", "longitude": "-80.366", "county": "", "siteID": "aa0764b3-df9d-57ca-b849-c8d66bb02653", "year": "2008", "latitude": "40.2654"},{"url": "https://s3.amazonaws.com/FrackFinder/Tadpole/Washington/2010/2010_X-080.3660_Y0040.2654.png", "longitude": "-80.366", "county": "", "siteID": "aa0764b3-df9d-57ca-b849-c8d66bb02653", "year": "2010", "latitude": "40.2654"},{"url": "https://s3.amazonaws.com/FrackFinder/Tadpole/Washington/2005/2005_X-080.3659_Y0040.2811.png", "longitude": "-80.3659", "county": "", "siteID": "ebf96919-9230-542b-ad44-554b87c43384", "year": "2005", "latitude": "40.2811"},{"url": "https://s3.amazonaws.com/FrackFinder/Tadpole/Washington/2008/2008_X-080.3659_Y0040.2811.png", "longitude": "-80.3659", "county": "", "siteID": "ebf96919-9230-542b-ad44-554b87c43384", "year": "2008", "latitude": "40.2811"},{"url": "https://s3.amazonaws.com/FrackFinder/Tadpole/Washington/2010/2010_X-080.3659_Y0040.2811.png", "longitude": "-80.3659", "county": "", "siteID": "ebf96919-9230-542b-ad44-554b87c43384", "year": "2010", "latitude": "40.2811"},{"url": "https://s3.amazonaws.com/FrackFinder/Tadpole/Greene/2005/2005_X-080.3658_Y0039.9778.png", "longitude": "-80.3658", "county": "", "siteID": "cb948b49-41dd-5cc3-9b09-d03d7dd569cf", "year": "2005", "latitude": "39.9778"},{"url": "https://s3.amazonaws.com/FrackFinder/Tadpole/Greene/2008/2008_X-080.3658_Y0039.9778.png", "longitude": "-80.3658", "county": "", "siteID": "cb948b49-41dd-5cc3-9b09-d03d7dd569cf", "year": "2008", "latitude": "39.9778"},{"url": "https://s3.amazonaws.com/FrackFinder/Tadpole/Greene/2010/2010_X-080.3658_Y0039.9778.png", "longitude": "-80.3658", "county": "", "siteID": "cb948b49-41dd-5cc3-9b09-d03d7dd569cf", "year": "2010", "latitude": "39.9778"},{"url": "https://s3.amazonaws.com/FrackFinder/Tadpole/Washington/2005/2005_X-080.3654_Y0040.2413.png", "longitude": "-80.3654", "county": "", "siteID": "a31d8807-2456-50ab-a983-47d491a28160", "year": "2005", "latitude": "40.2413"},{"url": "https://s3.amazonaws.com/FrackFinder/Tadpole/Washington/2008/2008_X-080.3654_Y0040.2413.png", "longitude": "-80.3654", "county": "", "siteID": "a31d8807-2456-50ab-a983-47d491a28160", "year": "2008", "latitude": "40.2413"},{"url": "https://s3.amazonaws.com/FrackFinder/Tadpole/Washington/2010/2010_X-080.3654_Y0040.2413.png", "longitude": "-80.3654", "county": "", "siteID": "a31d8807-2456-50ab-a983-47d491a28160", "year": "2010", "latitude": "40.2413"},{"url": "https://s3.amazonaws.com/FrackFinder/Tadpole/Washington/2005/2005_X-080.3637_Y0040.2709.png", "longitude": "-80.3637", "county": "", "siteID": "32226a78-43f4-5e7a-88a0-c7515a4dbdd1", "year": "2005", "latitude": "40.2709"},{"url": "https://s3.amazonaws.com/FrackFinder/Tadpole/Washington/2008/2008_X-080.3637_Y0040.2709.png", "longitude": "-80.3637", "county": "", "siteID": "32226a78-43f4-5e7a-88a0-c7515a4dbdd1", "year": "2008", "latitude": "40.2709"},{"url": "https://s3.amazonaws.com/FrackFinder/Tadpole/Washington/2010/2010_X-080.3637_Y0040.2709.png", "longitude": "-80.3637", "county": "", "siteID": "32226a78-43f4-5e7a-88a0-c7515a4dbdd1", "year": "2010", "latitude": "40.2709"},{"url": "https://s3.amazonaws.com/FrackFinder/Tadpole/Washington/2005/2005_X-080.3630_Y0040.4075.png", "longitude": "-80.363", "county": "", "siteID": "24e4205f-58ec-54f0-94c5-98e7502c0309", "year": "2005", "latitude": "40.4075"},{"url": "https://s3.amazonaws.com/FrackFinder/Tadpole/Washington/2008/2008_X-080.3630_Y0040.4075.png", "longitude": "-80.363", "county": "", "siteID": "24e4205f-58ec-54f0-94c5-98e7502c0309", "year": "2008", "latitude": "40.4075"},{"url": "https://s3.amazonaws.com/FrackFinder/Tadpole/Washington/2010/2010_X-080.3630_Y0040.4075.png", "longitude": "-80.363", "county": "", "siteID": "24e4205f-58ec-54f0-94c5-98e7502c0309", "year": "2010", "latitude": "40.4075"},{"url": "https://s3.amazonaws.com/FrackFinder/Tadpole/Washington/2005/2005_X-080.3628_Y0040.2655.png", "longitude": "-80.3628", "county": "", "siteID": "5a96074e-63b7-5278-a282-0c203c2f91b0", "year": "2005", "latitude": "40.2655"},{"url": "https://s3.amazonaws.com/FrackFinder/Tadpole/Washington/2008/2008_X-080.3628_Y0040.2655.png", "longitude": "-80.3628", "county": "", "siteID": "5a96074e-63b7-5278-a282-0c203c2f91b0", "year": "2008", "latitude": "40.2655"},{"url": "https://s3.amazonaws.com/FrackFinder/Tadpole/Washington/2010/2010_X-080.3628_Y0040.2655.png", "longitude": "-80.3628", "county": "", "siteID": "5a96074e-63b7-5278-a282-0c203c2f91b0", "year": "2010", "latitude": "40.2655"},{"url": "https://s3.amazonaws.com/FrackFinder/Tadpole/Washington/2005/2005_X-080.3616_Y0040.1883.png", "longitude": "-80.3616", "county": "", "siteID": "b41116d7-b148-5140-9396-1aa4afc4d19c", "year": "2005", "latitude": "40.1883"},{"url": "https://s3.amazonaws.com/FrackFinder/Tadpole/Washington/2008/2008_X-080.3616_Y0040.1883.png", "longitude": "-80.3616", "county": "", "siteID": "b41116d7-b148-5140-9396-1aa4afc4d19c", "year": "2008", "latitude": "40.1883"},{"url": "https://s3.amazonaws.com/FrackFinder/Tadpole/Washington/2010/2010_X-080.3616_Y0040.1883.png", "longitude": "-80.3616", "county": "", "siteID": "b41116d7-b148-5140-9396-1aa4afc4d19c", "year": "2010", "latitude": "40.1883"},{"url": "https://s3.amazonaws.com/FrackFinder/Tadpole/Washington/2005/2005_X-080.3612_Y0040.2805.png", "longitude": "-80.3612", "county": "", "siteID": "e7b67d89-78a1-541b-b993-b4e2524e2280", "year": "2005", "latitude": "40.2805"},{"url": "https://s3.amazonaws.com/FrackFinder/Tadpole/Washington/2008/2008_X-080.3612_Y0040.2805.png", "longitude": "-80.3612", "county": "", "siteID": "e7b67d89-78a1-541b-b993-b4e2524e2280", "year": "2008", "latitude": "40.2805"},{"url": "https://s3.amazonaws.com/FrackFinder/Tadpole/Washington/2010/2010_X-080.3612_Y0040.2805.png", "longitude": "-80.3612", "county": "", "siteID": "e7b67d89-78a1-541b-b993-b4e2524e2280", "year": "2010", "latitude": "40.2805"},{"url": "https://s3.amazonaws.com/FrackFinder/Tadpole/Greene/2005/2005_X-080.3610_Y0039.8534.png", "longitude": "-80.361", "county": "", "siteID": "c1965215-0c90-5c39-a93a-96f0b008ad7d", "year": "2005", "latitude": "39.8534"},{"url": "https://s3.amazonaws.com/FrackFinder/Tadpole/Greene/2008/2008_X-080.3610_Y0039.8534.png", "longitude": "-80.361", "county": "", "siteID": "c1965215-0c90-5c39-a93a-96f0b008ad7d", "year": "2008", "latitude": "39.8534"},{"url": "https://s3.amazonaws.com/FrackFinder/Tadpole/Greene/2010/2010_X-080.3610_Y0039.8534.png", "longitude": "-80.361", "county": "", "siteID": "c1965215-0c90-5c39-a93a-96f0b008ad7d", "year": "2010", "latitude": "39.8534"},{"url": "https://s3.amazonaws.com/FrackFinder/Tadpole/Washington/2005/2005_X-080.3608_Y0040.3052.png", "longitude": "-80.3608", "county": "", "siteID": "d28d49db-c36d-50f3-9bea-57c3cda66cf0", "year": "2005", "latitude": "40.3052"},{"url": "https://s3.amazonaws.com/FrackFinder/Tadpole/Washington/2008/2008_X-080.3608_Y0040.3052.png", "longitude": "-80.3608", "county": "", "siteID": "d28d49db-c36d-50f3-9bea-57c3cda66cf0", "year": "2008", "latitude": "40.3052"},{"url": "https://s3.amazonaws.com/FrackFinder/Tadpole/Washington/2010/2010_X-080.3608_Y0040.3052.png", "longitude": "-80.3608", "county": "", "siteID": "d28d49db-c36d-50f3-9bea-57c3cda66cf0", "year": "2010", "latitude": "40.3052"},{"url": "https://s3.amazonaws.com/FrackFinder/Tadpole/Washington/2005/2005_X-080.3599_Y0040.2588.png", "longitude": "-80.3599", "county": "", "siteID": "70fc2bdd-fdce-5b30-865a-5e7611235f96", "year": "2005", "latitude": "40.2588"},{"url": "https://s3.amazonaws.com/FrackFinder/Tadpole/Washington/2008/2008_X-080.3599_Y0040.2588.png", "longitude": "-80.3599", "county": "", "siteID": "70fc2bdd-fdce-5b30-865a-5e7611235f96", "year": "2008", "latitude": "40.2588"},{"url": "https://s3.amazonaws.com/FrackFinder/Tadpole/Washington/2010/2010_X-080.3599_Y0040.2588.png", "longitude": "-80.3599", "county": "", "siteID": "70fc2bdd-fdce-5b30-865a-5e7611235f96", "year": "2010", "latitude": "40.2588"},{"url": "https://s3.amazonaws.com/FrackFinder/Tadpole/Washington/2005/2005_X-080.3588_Y0040.2661.png", "longitude": "-80.3588", "county": "", "siteID": "21890aec-14b5-5f4f-892d-c21b292dc2ce", "year": "2005", "latitude": "40.2661"},{"url": "https://s3.amazonaws.com/FrackFinder/Tadpole/Washington/2008/2008_X-080.3588_Y0040.2661.png", "longitude": "-80.3588", "county": "", "siteID": "21890aec-14b5-5f4f-892d-c21b292dc2ce", "year": "2008", "latitude": "40.2661"},{"url": "https://s3.amazonaws.com/FrackFinder/Tadpole/Washington/2010/2010_X-080.3588_Y0040.2661.png", "longitude": "-80.3588", "county": "", "siteID": "21890aec-14b5-5f4f-892d-c21b292dc2ce", "year": "2010", "latitude": "40.2661"},{"url": "https://s3.amazonaws.com/FrackFinder/Tadpole/Greene/2005/2005_X-080.3584_Y0039.9537.png", "longitude": "-80.3584", "county": "", "siteID": "57cd157c-2c30-5d7d-b7a0-c34cce7e76e2", "year": "2005", "latitude": "39.9537"},{"url": "https://s3.amazonaws.com/FrackFinder/Tadpole/Greene/2008/2008_X-080.3584_Y0039.9537.png", "longitude": "-80.3584", "county": "", "siteID": "57cd157c-2c30-5d7d-b7a0-c34cce7e76e2", "year": "2008", "latitude": "39.9537"},{"url": "https://s3.amazonaws.com/FrackFinder/Tadpole/Greene/2010/2010_X-080.3584_Y0039.9537.png", "longitude": "-80.3584", "county": "", "siteID": "57cd157c-2c30-5d7d-b7a0-c34cce7e76e2", "year": "2010", "latitude": "39.9537"},{"url": "https://s3.amazonaws.com/FrackFinder/Tadpole/Washington/2005/2005_X-080.3581_Y0040.3677.png", "longitude": "-80.3581", "county": "", "siteID": "57ad8c22-2190-55e6-83eb-5262eee9203d", "year": "2005", "latitude": "40.3677"},{"url": "https://s3.amazonaws.com/FrackFinder/Tadpole/Washington/2008/2008_X-080.3581_Y0040.3677.png", "longitude": "-80.3581", "county": "", "siteID": "57ad8c22-2190-55e6-83eb-5262eee9203d", "year": "2008", "latitude": "40.3677"},{"url": "https://s3.amazonaws.com/FrackFinder/Tadpole/Washington/2010/2010_X-080.3581_Y0040.3677.png", "longitude": "-80.3581", "county": "", "siteID": "57ad8c22-2190-55e6-83eb-5262eee9203d", "year": "2010", "latitude": "40.3677"},{"url": "https://s3.amazonaws.com/FrackFinder/Tadpole/Washington/2005/2005_X-080.3571_Y0040.4574.png", "longitude": "-80.3571", "county": "", "siteID": "82c06142-9072-510b-8c4f-abdc4e29d93d", "year": "2005", "latitude": "40.4574"},{"url": "https://s3.amazonaws.com/FrackFinder/Tadpole/Washington/2008/2008_X-080.3571_Y0040.4574.png", "longitude": "-80.3571", "county": "", "siteID": "82c06142-9072-510b-8c4f-abdc4e29d93d", "year": "2008", "latitude": "40.4574"},{"url": "https://s3.amazonaws.com/FrackFinder/Tadpole/Washington/2010/2010_X-080.3571_Y0040.4574.png", "longitude": "-80.3571", "county": "", "siteID": "82c06142-9072-510b-8c4f-abdc4e29d93d", "year": "2010", "latitude": "40.4574"},{"url": "https://s3.amazonaws.com/FrackFinder/Tadpole/Washington/2005/2005_X-080.3548_Y0040.2668.png", "longitude": "-80.3548", "county": "", "siteID": "9d391788-21d1-5948-9879-a0b07aa93d7a", "year": "2005", "latitude": "40.2668"},{"url": "https://s3.amazonaws.com/FrackFinder/Tadpole/Washington/2008/2008_X-080.3548_Y0040.2668.png", "longitude": "-80.3548", "county": "", "siteID": "9d391788-21d1-5948-9879-a0b07aa93d7a", "year": "2008", "latitude": "40.2668"},{"url": "https://s3.amazonaws.com/FrackFinder/Tadpole/Washington/2010/2010_X-080.3548_Y0040.2668.png", "longitude": "-80.3548", "county": "", "siteID": "9d391788-21d1-5948-9879-a0b07aa93d7a", "year": "2010", "latitude": "40.2668"},{"url": "https://s3.amazonaws.com/FrackFinder/Tadpole/Washington/2005/2005_X-080.3543_Y0040.2767.png", "longitude": "-80.3543", "county": "", "siteID": "812fbf38-7e42-512d-9937-3abb26db502e", "year": "2005", "latitude": "40.2767"},{"url": "https://s3.amazonaws.com/FrackFinder/Tadpole/Washington/2008/2008_X-080.3543_Y0040.2767.png", "longitude": "-80.3543", "county": "", "siteID": "812fbf38-7e42-512d-9937-3abb26db502e", "year": "2008", "latitude": "40.2767"},{"url": "https://s3.amazonaws.com/FrackFinder/Tadpole/Washington/2010/2010_X-080.3543_Y0040.2767.png", "longitude": "-80.3543", "county": "", "siteID": "812fbf38-7e42-512d-9937-3abb26db502e", "year": "2010", "latitude": "40.2767"},{"url": "https://s3.amazonaws.com/FrackFinder/Tadpole/Washington/2005/2005_X-080.3535_Y0040.2712.png", "longitude": "-80.3535", "county": "", "siteID": "3532782e-7ccd-528b-be5e-d569399811bc", "year": "2005", "latitude": "40.2712"},{"url": "https://s3.amazonaws.com/FrackFinder/Tadpole/Washington/2008/2008_X-080.3535_Y0040.2712.png", "longitude": "-80.3535", "county": "", "siteID": "3532782e-7ccd-528b-be5e-d569399811bc", "year": "2008", "latitude": "40.2712"},{"url": "https://s3.amazonaws.com/FrackFinder/Tadpole/Washington/2010/2010_X-080.3535_Y0040.2712.png", "longitude": "-80.3535", "county": "", "siteID": "3532782e-7ccd-528b-be5e-d569399811bc", "year": "2010", "latitude": "40.2712"},{"url": "https://s3.amazonaws.com/FrackFinder/Tadpole/Washington/2005/2005_X-080.3533_Y0040.2523.png", "longitude": "-80.3533", "county": "", "siteID": "f85f010d-c063-5c51-baec-1494b2adf3fd", "year": "2005", "latitude": "40.2523"},{"url": "https://s3.amazonaws.com/FrackFinder/Tadpole/Washington/2008/2008_X-080.3533_Y0040.2523.png", "longitude": "-80.3533", "county": "", "siteID": "f85f010d-c063-5c51-baec-1494b2adf3fd", "year": "2008", "latitude": "40.2523"},{"url": "https://s3.amazonaws.com/FrackFinder/Tadpole/Washington/2010/2010_X-080.3533_Y0040.2523.png", "longitude": "-80.3533", "county": "", "siteID": "f85f010d-c063-5c51-baec-1494b2adf3fd", "year": "2010", "latitude": "40.2523"},{"url": "https://s3.amazonaws.com/FrackFinder/Tadpole/Washington/2005/2005_X-080.3528_Y0040.2106.png", "longitude": "-80.3528", "county": "", "siteID": "e4572e49-ef94-54a0-9cfb-f989d544710d", "year": "2005", "latitude": "40.2106"},{"url": "https://s3.amazonaws.com/FrackFinder/Tadpole/Washington/2008/2008_X-080.3528_Y0040.2106.png", "longitude": "-80.3528", "county": "", "siteID": "e4572e49-ef94-54a0-9cfb-f989d544710d", "year": "2008", "latitude": "40.2106"},{"url": "https://s3.amazonaws.com/FrackFinder/Tadpole/Washington/2010/2010_X-080.3528_Y0040.2106.png", "longitude": "-80.3528", "county": "", "siteID": "e4572e49-ef94-54a0-9cfb-f989d544710d", "year": "2010", "latitude": "40.2106"},{"url": "https://s3.amazonaws.com/FrackFinder/Tadpole/Washington/2005/2005_X-080.3524_Y0040.0403.png", "longitude": "-80.3524", "county": "", "siteID": "a20fb1e5-53ae-5bd2-8753-ce0292b91118", "year": "2005", "latitude": "40.0403"},{"url": "https://s3.amazonaws.com/FrackFinder/Tadpole/Washington/2008/2008_X-080.3524_Y0040.0403.png", "longitude": "-80.3524", "county": "", "siteID": "a20fb1e5-53ae-5bd2-8753-ce0292b91118", "year": "2008", "latitude": "40.0403"},{"url": "https://s3.amazonaws.com/FrackFinder/Tadpole/Washington/2010/2010_X-080.3524_Y0040.0403.png", "longitude": "-80.3524", "county": "", "siteID": "a20fb1e5-53ae-5bd2-8753-ce0292b91118", "year": "2010", "latitude": "40.0403"},{"url": "https://s3.amazonaws.com/FrackFinder/Tadpole/Washington/2005/2005_X-080.3518_Y0040.1960.png", "longitude": "-80.3518", "county": "", "siteID": "b30068f9-9b68-5b32-b5d9-34b7e57a4399", "year": "2005", "latitude": "40.196"},{"url": "https://s3.amazonaws.com/FrackFinder/Tadpole/Washington/2008/2008_X-080.3518_Y0040.1960.png", "longitude": "-80.3518", "county": "", "siteID": "b30068f9-9b68-5b32-b5d9-34b7e57a4399", "year": "2008", "latitude": "40.196"},{"url": "https://s3.amazonaws.com/FrackFinder/Tadpole/Washington/2010/2010_X-080.3518_Y0040.1960.png", "longitude": "-80.3518", "county": "", "siteID": "b30068f9-9b68-5b32-b5d9-34b7e57a4399", "year": "2010", "latitude": "40.196"},{"url": "https://s3.amazonaws.com/FrackFinder/Tadpole/Washington/2005/2005_X-080.3515_Y0040.2321.png", "longitude": "-80.3515", "county": "", "siteID": "04811925-eb98-5388-b1a1-6cdf715549ba", "year": "2005", "latitude": "40.2321"},{"url": "https://s3.amazonaws.com/FrackFinder/Tadpole/Washington/2008/2008_X-080.3515_Y0040.2321.png", "longitude": "-80.3515", "county": "", "siteID": "04811925-eb98-5388-b1a1-6cdf715549ba", "year": "2008", "latitude": "40.2321"},{"url": "https://s3.amazonaws.com/FrackFinder/Tadpole/Washington/2010/2010_X-080.3515_Y0040.2321.png", "longitude": "-80.3515", "county": "", "siteID": "04811925-eb98-5388-b1a1-6cdf715549ba", "year": "2010", "latitude": "40.2321"},{"url": "https://s3.amazonaws.com/FrackFinder/Tadpole/Washington/2005/2005_X-080.3515_Y0040.2849.png", "longitude": "-80.3515", "county": "", "siteID": "13f008fb-97b0-5074-bf65-bc5ce51efed5", "year": "2005", "latitude": "40.2849"},{"url": "https://s3.amazonaws.com/FrackFinder/Tadpole/Washington/2008/2008_X-080.3515_Y0040.2849.png", "longitude": "-80.3515", "county": "", "siteID": "13f008fb-97b0-5074-bf65-bc5ce51efed5", "year": "2008", "latitude": "40.2849"},{"url": "https://s3.amazonaws.com/FrackFinder/Tadpole/Washington/2010/2010_X-080.3515_Y0040.2849.png", "longitude": "-80.3515", "county": "", "siteID": "13f008fb-97b0-5074-bf65-bc5ce51efed5", "year": "2010", "latitude": "40.2849"},{"url": "https://s3.amazonaws.com/FrackFinder/Tadpole/Washington/2005/2005_X-080.3514_Y0040.4669.png", "longitude": "-80.3514", "county": "", "siteID": "f42f7419-50ef-5866-b309-f51255561e0e", "year": "2005", "latitude": "40.4669"},{"url": "https://s3.amazonaws.com/FrackFinder/Tadpole/Washington/2008/2008_X-080.3514_Y0040.4669.png", "longitude": "-80.3514", "county": "", "siteID": "f42f7419-50ef-5866-b309-f51255561e0e", "year": "2008", "latitude": "40.4669"},{"url": "https://s3.amazonaws.com/FrackFinder/Tadpole/Washington/2010/2010_X-080.3514_Y0040.4669.png", "longitude": "-80.3514", "county": "", "siteID": "f42f7419-50ef-5866-b309-f51255561e0e", "year": "2010", "latitude": "40.4669"},{"url": "https://s3.amazonaws.com/FrackFinder/Tadpole/Washington/2005/2005_X-080.3499_Y0040.2772.png", "longitude": "-80.3499", "county": "", "siteID": "153d5bfe-fc13-586d-961b-9a8c8e88c838", "year": "2005", "latitude": "40.2772"},{"url": "https://s3.amazonaws.com/FrackFinder/Tadpole/Washington/2008/2008_X-080.3499_Y0040.2772.png", "longitude": "-80.3499", "county": "", "siteID": "153d5bfe-fc13-586d-961b-9a8c8e88c838", "year": "2008", "latitude": "40.2772"},{"url": "https://s3.amazonaws.com/FrackFinder/Tadpole/Washington/2010/2010_X-080.3499_Y0040.2772.png", "longitude": "-80.3499", "county": "", "siteID": "153d5bfe-fc13-586d-961b-9a8c8e88c838", "year": "2010", "latitude": "40.2772"},{"url": "https://s3.amazonaws.com/FrackFinder/Tadpole/Washington/2005/2005_X-080.3489_Y0040.2744.png", "longitude": "-80.3489", "county": "", "siteID": "c75ca70b-6663-5e5f-b614-27f75a860c77", "year": "2005", "latitude": "40.2744"},{"url": "https://s3.amazonaws.com/FrackFinder/Tadpole/Washington/2008/2008_X-080.3489_Y0040.2744.png", "longitude": "-80.3489", "county": "", "siteID": "c75ca70b-6663-5e5f-b614-27f75a860c77", "year": "2008", "latitude": "40.2744"},{"url": "https://s3.amazonaws.com/FrackFinder/Tadpole/Washington/2010/2010_X-080.3489_Y0040.2744.png", "longitude": "-80.3489", "county": "", "siteID": "c75ca70b-6663-5e5f-b614-27f75a860c77", "year": "2010", "latitude": "40.2744"},{"url": "https://s3.amazonaws.com/FrackFinder/Tadpole/Washington/2005/2005_X-080.3489_Y0040.3363.png", "longitude": "-80.3489", "county": "", "siteID": "a524f599-1911-566f-bf41-4b6f96e38d3f", "year": "2005", "latitude": "40.3363"},{"url": "https://s3.amazonaws.com/FrackFinder/Tadpole/Washington/2008/2008_X-080.3489_Y0040.3363.png", "longitude": "-80.3489", "county": "", "siteID": "a524f599-1911-566f-bf41-4b6f96e38d3f", "year": "2008", "latitude": "40.3363"},{"url": "https://s3.amazonaws.com/FrackFinder/Tadpole/Washington/2010/2010_X-080.3489_Y0040.3363.png", "longitude": "-80.3489", "county": "", "siteID": "a524f599-1911-566f-bf41-4b6f96e38d3f", "year": "2010", "latitude": "40.3363"},{"url": "https://s3.amazonaws.com/FrackFinder/Tadpole/Washington/2005/2005_X-080.3484_Y0040.2562.png", "longitude": "-80.3484", "county": "", "siteID": "c77de515-9d4d-53fd-9f44-3c78fbda942b", "year": "2005", "latitude": "40.2562"},{"url": "https://s3.amazonaws.com/FrackFinder/Tadpole/Washington/2008/2008_X-080.3484_Y0040.2562.png", "longitude": "-80.3484", "county": "", "siteID": "c77de515-9d4d-53fd-9f44-3c78fbda942b", "year": "2008", "latitude": "40.2562"},{"url": "https://s3.amazonaws.com/FrackFinder/Tadpole/Washington/2010/2010_X-080.3484_Y0040.2562.png", "longitude": "-80.3484", "county": "", "siteID": "c77de515-9d4d-53fd-9f44-3c78fbda942b", "year": "2010", "latitude": "40.2562"},{"url": "https://s3.amazonaws.com/FrackFinder/Tadpole/Washington/2005/2005_X-080.3476_Y0040.2681.png", "longitude": "-80.3476", "county": "", "siteID": "024e5b45-e6a0-58b9-8d4f-c875539bba3c", "year": "2005", "latitude": "40.2681"},{"url": "https://s3.amazonaws.com/FrackFinder/Tadpole/Washington/2008/2008_X-080.3476_Y0040.2681.png", "longitude": "-80.3476", "county": "", "siteID": "024e5b45-e6a0-58b9-8d4f-c875539bba3c", "year": "2008", "latitude": "40.2681"},{"url": "https://s3.amazonaws.com/FrackFinder/Tadpole/Washington/2010/2010_X-080.3476_Y0040.2681.png", "longitude": "-80.3476", "county": "", "siteID": "024e5b45-e6a0-58b9-8d4f-c875539bba3c", "year": "2010", "latitude": "40.2681"},{"url": "https://s3.amazonaws.com/FrackFinder/Tadpole/Washington/2005/2005_X-080.3471_Y0040.2438.png", "longitude": "-80.3471", "county": "", "siteID": "e3c106ca-f0e9-574c-998d-c3011b6c9425", "year": "2005", "latitude": "40.2438"},{"url": "https://s3.amazonaws.com/FrackFinder/Tadpole/Washington/2008/2008_X-080.3471_Y0040.2438.png", "longitude": "-80.3471", "county": "", "siteID": "e3c106ca-f0e9-574c-998d-c3011b6c9425", "year": "2008", "latitude": "40.2438"},{"url": "https://s3.amazonaws.com/FrackFinder/Tadpole/Washington/2010/2010_X-080.3471_Y0040.2438.png", "longitude": "-80.3471", "county": "", "siteID": "e3c106ca-f0e9-574c-998d-c3011b6c9425", "year": "2010", "latitude": "40.2438"},{"url": "https://s3.amazonaws.com/FrackFinder/Tadpole/Washington/2005/2005_X-080.3465_Y0040.2847.png", "longitude": "-80.3465", "county": "", "siteID": "53763470-06f7-5055-9945-4c054c5b1390", "year": "2005", "latitude": "40.2847"},{"url": "https://s3.amazonaws.com/FrackFinder/Tadpole/Washington/2008/2008_X-080.3465_Y0040.2847.png", "longitude": "-80.3465", "county": "", "siteID": "53763470-06f7-5055-9945-4c054c5b1390", "year": "2008", "latitude": "40.2847"},{"url": "https://s3.amazonaws.com/FrackFinder/Tadpole/Washington/2010/2010_X-080.3465_Y0040.2847.png", "longitude": "-80.3465", "county": "", "siteID": "53763470-06f7-5055-9945-4c054c5b1390", "year": "2010", "latitude": "40.2847"},{"url": "https://s3.amazonaws.com/FrackFinder/Tadpole/Washington/2005/2005_X-080.3454_Y0040.2883.png", "longitude": "-80.3454", "county": "", "siteID": "d4ab4c6f-00b7-5333-9e74-b971c5913706", "year": "2005", "latitude": "40.2883"},{"url": "https://s3.amazonaws.com/FrackFinder/Tadpole/Washington/2008/2008_X-080.3454_Y0040.2883.png", "longitude": "-80.3454", "county": "", "siteID": "d4ab4c6f-00b7-5333-9e74-b971c5913706", "year": "2008", "latitude": "40.2883"},